~Version Information
VERS.                     2.0: CWLS log ASCII Standard Version 2.00
WRAP.                      NO: One line per depth step
~Well Information Block
#MNEM.UNIT                 Value                       Information
#------------              -----                       -----------
STRT.M                     39.6240                    :START
STOP.M                   2661.9708                    :STOP
STEP.M                       .1524                    :STEP
NULL.                     -999.25                     :NULL VALUE
WELL.         CHERVIL 1                               :Well Name
FLD .         CHERVIL                                 :Field
PROV.                                                 :Province
LOC .                                                 :Field Location
PD  .         MSL                                     :Permanent Datum
UWI .                                                 :Unique Well ID
ELZ .M               .00                              :Elevation Log Zero
OS  .                                                 :Services
SRVC.                                                 :Service company
DATE.                                                 :Date
~Curve Information
#MNEM   .UNIT             API CODE Curve Description
#------------             -------- -----------------
DEPT    .M                        :   1  Depth
DEP     .M                        :   2  Measured Depth
FDTU    .US/F                     :   3  Delta T
SGRC    .GAPI                     :   4  Gamma-Ray Log (Renamed from GR)
ACAL    .CM                       :   5  Caliper Log
SP      .MV                       :   6  Spontaneous Potential Log
LLS     .OHMM                     :   7  Shallow Laterolog
SEDP    .OHMM                     :   8  Laterolog Deep Resistivity
MSFL    .OHMM                     :   9  Micro Spherically Focused Log
PEF     .                         :  10  Photoelectric Factor
SBDC    .G/C3                     :  11  Compensated Formation Density Log
FSTP    .PU                       :  12  Neutron Log Porosity
DRHO    .G/C3                     :  13  Density Log Correction
NCNL    .CPS                      :  14
FCNL    .CPS                      :  15
THOR    .PPM                      :  16  Thorium
URAN    .PPM                      :  17  Uranium
POTA    .PU                       :  18  Potassium Concentration
SGR     .GAPI                     :  19  Spectral Gamma-Ray
CGR     .GAPI                     :  20  Computed Gamma-Ray (Thorium + Potassium)
~Parameter Information
#MNEM.UNIT       Value           Description
#------------    -----           -----------
BLI .M           2661.06        :Bottom log interval
TLI .M             39.47        :Top log interval
~Other Information
~A
# ...
 1934.2608   1933.499   75.56250   26.45313   8.468750   69.06250   1.366496   1.307652   1.289388   1.595703   2.324219   13.62305   .0166016   4316.000   2162.000   3.109375  -.1372070   .7812500   24.53125   25.65625
 1934.4132   1933.651   76.56250   29.01563   8.507813   69.03125   1.371193   1.290272   1.341146   1.604492   2.326172   14.16016   .0146484   4260.000   2116.000   3.648438  -.3623047   .7324219   24.65625   27.64063
 1934.5656   1933.803   76.37500   26.59375   8.523438   68.54688   1.350712   1.294294   1.327799   1.622070   2.324219   14.11133   .0112305   4164.000   2068.000   4.117188  -.1772461   .6835938   25.06250   26.53125
 1934.7180   1933.956   76.75000   27.70313   8.539063   69.79688   1.255932   1.242434   1.294271   1.691406   2.310547   14.06250   .0034180   4100.000   2056.000   4.230469  -.2919922   .6835938   25.03125   27.43750
 1934.8704   1934.108   77.18750   25.17188   8.531250   70.26563   1.139355   1.118577   1.279622   1.743164   2.314453   14.84375   .0073242   4240.000   2126.000   4.796875   .0727539   .7324219   29.71875   29.10938
 1935.0228   1934.260   77.18750   26.71875   8.531250   70.53125   1.052995   1.022382   1.246745   2.167969   2.326172   14.64844   .0083008   4090.000   1875.000   6.914063  -.1831055   .7812500   31.68750   33.18750
 1935.1752   1934.413   74.56250   25.20313   8.554688   70.45313   1.120118   1.178914   1.177083   3.189453   2.417969   15.72266   .0117188   3248.000   1666.000   7.011719   .6406250   .7812500   41.84375   36.56250
 1935.3276   1934.565   70.37500   28.15625   8.617188   70.54688   1.453547   1.563831   1.264648   3.210938   2.560547   18.75000   .0073242   3216.000   1444.000   9.156250   1.109375   .6835938   53.84375   44.68750
 1935.4800   1934.718   67.75000   36.56250   8.671875   71.34375   2.015296   2.326505   2.149739   2.425781   2.644531   21.43555   .0175781   3488.000   1233.000   10.31250   2.259766   .8789063   70.62500   51.96875
 1935.6324   1934.870   68.37500   56.43750   8.718750   71.35938   2.902376   3.401710   7.282552   2.000000   2.572266   21.04492   .0117188   3842.000   1526.000   9.437500   1.957031   .9277344   73.25000   57.12500
 1935.7848   1935.022   70.00000   65.43750   8.750000   71.50000   3.270917   3.761886   8.739582   1.884766   2.468750   16.89453   .0161133   3764.000   1745.000   8.718750   .5937500   1.220703   67.06250   62.15625
 1935.9372   1935.175   75.37500   64.12500   8.781250   71.14063   2.788517   2.983479   2.779948   1.947266   2.445313   15.23438   .0180664   3494.000   1765.000   8.257813   .3476563   1.220703   55.43750   52.56250
 1936.0896   1935.327   77.56250   55.43750   8.789063   71.04688   2.289800   2.297029   2.229817   2.314453   2.458984   15.77148   .0151367   3600.000   1650.000   6.347656  -.2597656   1.464844   51.84375   53.96875
 1936.2420   1935.480   75.75000   48.93750   8.789063   70.40625   2.179722   2.188008   2.115234   3.013672   2.486328   17.08984   .0068359   3682.000   1625.000   7.160156  -.1845703   1.416016   49.81250   51.34375
 1936.3944   1935.632   73.56250   54.28125   8.812500   69.81250   2.403761   2.424440   2.137370   3.281250   2.546875   18.45703   .0048828   3516.000   1556.000   7.445313  -.0932617   1.416016   51.06250   51.84375
 1936.5468   1935.784   72.18750   54.06250   8.875000   69.29688   2.811756   2.907764   2.727213   2.392578   2.580078   18.79883   .0073242   3676.000   1491.000   8.046875   .4204102   1.367188   54.68750   51.21875
 1936.6992   1935.937   72.18750   62.65625   8.929688   68.76563   3.443046   3.556130   3.057292   2.056641   2.562500   18.99414   .0122070   3552.000   1518.000   9.554688   1.348633   1.074219   63.21875   52.09375
 1936.8516   1936.089   72.00000   68.25000   8.960938   68.62500   3.776212   3.956466   5.565104   2.214844   2.531250   17.23633   .0126953   3460.000   1500.000   13.37500   .3071289   1.318359   73.06250   70.50000
 1937.0040   1936.242   70.37500   74.75000   9.000000   67.39063   4.384465   4.632170   5.858072   3.136719   2.572266   18.55469   .0102539   3094.000   1451.000   14.39844   .3007813   1.269531   82.50000   80.00000
 1937.1564   1936.394   68.75000   78.62500   9.046875   67.07813   4.993576   5.285946   3.374349   3.525391   2.679688   19.87305   .0112305   3132.000   1200.000   15.73438   .8759766   1.123047   86.50000   79.31250
 1937.3088   1936.546   65.56250   81.43750   9.085938   66.34375   5.787601   6.252131   11.09766   3.396484   2.822266   21.19141   .0141602   2950.000   1140.000   14.43750   .9780273   1.318359   87.75000   79.68750
 1937.4612   1936.699   63.00000   81.50000   9.085938   65.88281   8.433855   9.356861   14.01563   3.925781   2.880859   21.82617   .0014648   2928.000   1212.000   16.04688   .6982422   .7812500   85.25000   79.50000
 1937.6136   1936.851   63.00000   85.87500   9.093750   66.01563   11.87299   13.36123   20.55729   3.517578   2.900391   22.26563   .0092773   3316.000   1208.000   15.85938   .7705078   .8300781   87.12500   80.75000
 1937.7660   1937.004   66.18750   84.31250   9.085938   65.52344   10.36349   11.41025   21.48438   3.177734   2.832031   21.67969   .0161133   3498.000   1316.000   15.70313   1.322266   1.025391   84.75000   73.81250
 1937.9184   1937.156   68.37500   87.18750   9.093750   65.95313   8.042849   8.425041   21.38541   3.066406   2.802734   18.35938   .0595703   3418.000   1489.000   14.68750   .3525391   .7812500   80.81250   77.87500
 1938.0708   1937.309   69.56250   78.50000   9.054688   66.07813   6.796854   6.945121   10.51432   4.496094   2.785156   16.74805   .0458984   3338.000   1622.000   14.90625  -.0957031   .6347656   71.18750   72.00000
 1938.2232   1937.461   70.00000   68.25000   9.039063   66.93750   5.834022   5.809158   6.296875   5.804688   2.820313   16.74805   .0288086   3506.000   1509.000   14.24219   .0629883   .4882813   67.50000   67.00000
 1938.3756   1937.613   67.00000   61.87500   8.992188   67.81250   5.584101   5.626739   8.289063   6.355469   2.861328   17.67578   .0209961   3484.000   1517.000   13.47656  -.0786133   .6835938   63.00000   63.62500
 1938.5280   1937.766   66.56250   59.78125   9.000000   67.67188   6.516967   6.626819   6.602864   3.892578   2.837891   17.43164   .0141602   3144.000   1406.000   13.21094  -.6762695   .7324219   56.96875   62.53125
 1938.6804   1937.918   68.18750   60.25000   9.000000   67.54688   6.723156   6.764588   7.110677   3.080078   2.750000   16.40625   .0161133   3166.000   1399.000   14.25000  -.4194336   .7812500   56.53125   60.00000
 1938.8328   1938.071   69.18750   65.06250   8.984375   67.45313   6.048455   5.975255   10.55208   2.478516   2.634766   17.23633   .0131836   2742.000   1316.000   14.30469   1.881836   .4882813   68.62500   53.09375
 1938.9852   1938.223   71.00000   77.43750   8.992188   67.56250   5.898840   5.755543   6.553385   2.501953   2.580078   20.70313   .0175781   2354.000   974.5000   15.59375   4.214844   .4882813   95.56250   60.75000
 1939.1376   1938.375   70.56250   98.75000   8.992188   67.06250   6.311252   6.059106   4.337239   3.240234   2.615234   25.92773   .0151367   2300.000   773.0000   19.00000   5.570313   .6347656   125.3125   79.31250
 1939.2900   1938.528   68.18750   120.9375   8.984375   66.96875   6.699444   6.425127   11.98177   3.318359   2.687500   30.76172   .0136719   2166.000   684.5000   18.67188   6.488281   1.318359   140.2500   86.68750
 1939.4424   1938.680   66.75000   134.2500   8.992188   65.42969   8.855326   8.689243   21.44271   2.722656   2.755859   31.15234   .0239258   2252.000   662.0000   16.75000   5.894531   1.367188   143.8750   95.18750
 1939.5948   1938.833   68.00000   136.7500   8.992188   64.54688   12.90939   12.84333   21.67708   2.083984   2.687500   33.59375   .0122070   2240.000   731.5000   17.43750   6.039063   1.269531   142.2500   92.43750
 1939.7472   1938.985   69.00000   135.2500   8.992188   64.91406   14.27535   14.19153   23.27604   1.799805   2.621094   36.76758   .0107422   2886.000   790.5000   18.25000   6.046875   1.269531   141.6250   91.75000
