~Version Information
VERS.                     2.0: CWLS log ASCII Standard Version 2.00
WRAP.                      NO: One line per depth step
~Well Information Block
#MNEM.UNIT                 Value                       Information
#------------              -----                       -----------
STRT.M                     39.6240                    :START
STOP.M                   2661.9708                    :STOP
STEP.M                       .1524                    :STEP
NULL.                     -999.25                     :NULL VALUE
WELL.         CHERVIL 1                               :Well Name
FLD .         CHERVIL                                 :Field
PROV.                                                 :Province
LOC .                                                 :Field Location
PD  .         MSL                                     :Permanent Datum
UWI .                                                 :Unique Well ID
ELZ .M               .00                              :Elevation Log Zero
OS  .                                                 :Services
SRVC.                                                 :Service company
DATE.                                                 :Date
~Curve Information
#MNEM   .UNIT             API CODE Curve Description
#------------             -------- -----------------
DEPT    .M                        :   1  Depth
DEP     .M                        :   2  Measured Depth
FDTU    .US/F                     :   3  Delta T
SGRC    .GAPI                     :   4  Gamma-Ray Log (Renamed from GR)
ACAL    .CM                       :   5  Caliper Log
SP      .MV                       :   6  Spontaneous Potential Log
LLS     .OHMM                     :   7  Shallow Laterolog
SEDP    .OHMM                     :   8  Laterolog Deep Resistivity
MSFL    .OHMM                     :   9  Micro Spherically Focused Log
PEF     .                         :  10  Photoelectric Factor
SBDC    .G/C3                     :  11  Compensated Formation Density Log
FSTP    .PU                       :  12  Neutron Log Porosity
DRHO    .G/C3                     :  13  Density Log Correction
NCNL    .CPS                      :  14
FCNL    .CPS                      :  15
THOR    .PPM                      :  16  Thorium
URAN    .PPM                      :  17  Uranium
POTA    .PU                       :  18  Potassium Concentration
SGR     .GAPI                     :  19  Spectral Gamma-Ray
CGR     .GAPI                     :  20  Computed Gamma-Ray (Thorium + Potassium)
~Parameter Information
#MNEM.UNIT       Value           Description
#------------    -----           -----------
BLI .M           2661.06        :Bottom log interval
TLI .M             39.47        :Top log interval
~Other Information
~A
# ...
 2413.5588   2412.644   72.00000   45.15625   8.437500   64.36719   3.761925   4.976781   3.380208   2.158203   2.462891   17.87109   .0136719   3744.000   1703.000   6.984375   .4038086   1.123047   50.31250   46.96875
 2413.7112   2412.796   70.75000   42.75000   8.421875   64.22656   4.083671   5.424543   2.811198   2.253906   2.488281   17.62695   .0146484   3626.000   1644.000   7.222656   .2485352   1.074219   49.81250   47.75000
 2413.8636   2412.949   72.00000   42.68750   8.406250   64.11719   3.836290   5.133780   5.075521   2.218750   2.480469   18.79883   .0117188   3664.000   1566.000   6.847656   .0610352   1.220703   48.40625   47.90625
 2414.0160   2413.101   71.37500   39.81250   8.414063   63.60156   3.595342   4.864687   5.104166   2.251953   2.451172   19.28711   .0126953   3694.000   1528.000   6.984375  -.1225586   1.220703   48.84375   49.87500
 2414.1684   2413.253   74.00000   41.75000   8.406250   63.33594   3.385000   4.530220   2.613932   2.261719   2.431641   19.77539   .0131836   3592.000   1555.000   6.972656   .1171875   1.269531   48.18750   47.21875
 2414.3208   2413.406   75.75000   45.71875   8.382813   64.18750   2.856710   3.768204   2.479817   2.246094   2.419922   19.87305   .0136719   3770.000   1544.000   6.667969   .0219727   1.269531   50.62500   50.43750
 2414.4732   2413.559   75.18750   48.21875   8.382813   64.53906   2.635946   3.481143   2.397786   2.191406   2.421875   19.67773   .0141602   3894.000   1599.000   6.496094   .3862305   1.416016   50.53125   47.34375
 2414.6256   2413.711   75.56250   52.03125   8.390625   64.42188   2.662611   3.466424   2.460286   2.068359   2.419922   18.45703   .0136719   3902.000   1719.000   6.746094   .3066406   1.318359   53.40625   50.87500
 2414.7780   2413.863   73.37500   55.31250   8.429688   64.01563   2.997526   3.992443   2.505859   2.064453   2.425781   17.08984   .0092773   3878.000   1772.000   7.058594   .5136719   1.416016   54.93750   50.68750
 2414.9304   2414.016   71.75000   55.78125   8.453125   65.02344   3.506837   4.727033   2.583333   1.972656   2.437500   16.60156   .0034180   3862.000   1799.000   6.835938   .6181641   1.562500   59.15625   54.03125
 2415.0828   2414.168   70.56250   49.50000   8.445313   65.36719   3.626581   4.988726   4.229166   1.902344   2.447266   16.99219   .0053711   3826.000   1740.000   7.710938   .7290039   1.464844   59.09375   53.09375
 2415.2352   2414.320   70.00000   46.93750   8.445313   65.61719   3.747399   5.164039   5.200521   1.801758   2.433594   17.43164   .0053711   3686.000   1625.000   7.101563   .4384766   1.367188   58.68750   55.06250
 2415.3876   2414.473   72.00000   48.25000   8.445313   65.98438   3.483510   4.856324   4.206380   1.759766   2.414063   18.16406   .0092773   3644.000   1642.000   7.238281   .5893555   1.318359   55.15625   50.28125
 2415.5400   2414.625   74.56250   51.18750   8.414063   66.35938   3.056288   4.098534   2.857422   1.817383   2.392578   18.35938   .0087891   3632.000   1547.000   6.929688   .5693359   1.269531   56.53125   51.84375
 2415.6924   2414.778   75.75000   51.25000   8.414063   66.70313   2.573985   3.489316   2.666016   1.902344   2.396484   18.94531   .0117188   3600.000   1556.000   7.617188   .8886719   1.269531   56.65625   49.31250
 2415.8448   2414.930   76.18750   52.31250   8.414063   65.98438   2.302706   3.087990   2.358073   1.968750   2.400391   18.50586   .0151367   3606.000   1543.000   7.968750   .8544922   1.074219   58.31250   51.28125
 2415.9972   2415.083   76.18750   55.34375   8.406250   66.01563   2.174139   2.883669   2.180338   1.985352   2.410156   18.70117   .0180664   3618.000   1608.000   8.250000   .8330078   1.025391   57.37500   50.50000
 2416.1496   2415.235   76.75000   58.68750   8.414063   65.39844   2.104616   2.773713   2.212239   1.958008   2.402344   18.45703   .0141602   3642.000   1546.000   7.476563   .9570313   1.123047   57.81250   49.90625
 2416.3020   2415.387   77.18750   60.03125   8.421875   65.15625   2.066281   2.687171   2.173177   1.960938   2.396484   18.60352   .0102539   3614.000   1583.000   7.757813   .9106445   1.171875   57.46875   49.93750
 2416.4544   2415.540   76.37500   63.87500   8.414063   64.65625   2.112453   2.752160   2.001953   1.899414   2.394531   18.40820   .0068359   3594.000   1568.000   7.738281   .7680664   1.074219   55.68750   49.34375
 2416.6068   2415.692   76.56250   66.81250   8.414063   64.53906   2.114876   2.756081   2.011067   1.809570   2.396484   18.65234   .0073242   3688.000   1596.000   7.824219   .4731445   .9277344   52.03125   48.12500
 2416.7592   2415.844   76.56250   65.25000   8.414063   63.92188   2.129424   2.733307   2.389974   1.758789   2.382813   18.60352   .0034180   3694.000   1580.000   7.523438   .3491211   .9277344   50.68750   47.81250
 2416.9116   2415.997   76.56250   59.84375   8.429688   63.59375   2.175918   2.798600   2.284505   1.760742   2.375000   18.99414   .0034180   3740.000   1646.000   7.828125   .7084961   .8789063   49.90625   44.06250
 2417.0640   2416.149   76.56250   53.62500   8.453125   63.98438   2.153008   2.740730   2.015299   1.849609   2.375000   19.04297   .0034180   3786.000   1575.000   7.277344   .5185547   .9765625   51.62500   47.34375
 2417.2164   2416.302   76.00000   51.34375   8.453125   64.75000   2.154633   2.731676   2.148438   1.982422   2.394531   19.48242   .0087891   3710.000   1572.000   7.035156   .6406250   1.123047   50.12500   44.84375
 2417.3688   2416.454   75.75000   47.56250   8.453125   65.98438   2.205730   2.804413   2.264323   2.123047   2.408203   18.65234   .0083008   3764.000   1594.000   6.679688   .3774414   1.171875   52.21875   49.09375
 2417.5212   2416.606   75.56250   46.18750   8.460938   66.87500   2.256990   2.800457   2.766276   2.214844   2.417969   18.31055   .0083008   3668.000   1642.000   6.769531   .6381836   1.318359   51.50000   46.21875
 2417.6736   2416.759   74.75000   47.81250   8.453125   67.89063   2.340768   2.961998   2.483073   2.271484   2.425781   17.82227   .0053711   3708.000   1619.000   6.667969   .5561523   1.220703   52.75000   48.15625
 2417.8260   2416.911   74.56250   45.56250   8.460938   67.78125   2.483874   3.062055   2.550781   2.160156   2.435547   17.91992   .0083008   3794.000   1677.000   7.308594   .8261719   1.123047   53.53125   46.68750
 2417.9784   2417.063   72.75000   48.09375   8.453125   67.90625   2.792873   3.494812   3.167317   2.074219   2.449219   17.52930   .0112305   3852.000   1710.000   6.183594   1.709961   1.171875   57.71875   43.59375
 2418.1308   2417.216   71.00000   51.56250   8.500000   67.26563   3.333491   4.181457   3.111328   2.064453   2.457031   17.33398   .0122070   3632.000   1641.000   6.402344   1.997070   1.220703   63.43750   46.96875
 2418.2832   2417.369   71.00000   59.96875   8.507813   66.87500   3.551703   4.483202   4.386719   2.203125   2.466797   18.31055   .0117188   3582.000   1613.000   6.105469   1.767578   1.269531   62.34375   47.75000
 2418.4356   2417.521   70.75000   61.15625   8.515625   66.89063   3.627989   4.489471   5.932291   2.267578   2.468750   19.14063   .0102539   3806.000   1554.000   7.878906   .1684570   1.269531   59.21875   57.81250
 2418.5880   2417.673   71.75000   54.68750   8.515625   66.75000   3.840360   4.662788   4.233724   2.230469   2.464844   19.18945   .0126953   3768.000   1581.000   8.078125   .0478516   1.269531   53.28125   52.87500
 2418.7404   2417.826   71.75000   51.40625   8.515625   66.15625   3.926726   4.632380   3.568359   2.183594   2.472656   18.06641   .0122070   3888.000   1737.000   8.218750  -.0649414   1.220703   55.21875   55.75000
 2418.8928   2417.978   70.18750   49.21875   8.507813   65.39844   4.634590   5.578440   4.480469   2.140625   2.501953   17.28516   .0180664   3766.000   1707.000   8.921875   .3627930   1.269531   58.46875   55.46875
 2419.0452   2418.130   68.75000   51.56250   8.500000   65.88281   5.067646   6.063599   7.942708   2.025391   2.523438   17.91992   .0190430   3758.000   1686.000   9.687500   .5341797   1.171875   61.12500   56.71875
