~Version Information
VERS.                     2.0: CWLS log ASCII Standard Version 2.00
WRAP.                      NO: One line per depth step
~Well Information Block
#MNEM.UNIT                 Value                       Information
#------------              -----                       -----------
STRT.M                     39.6240                    :START
STOP.M                   2661.9708                    :STOP
STEP.M                       .1524                    :STEP
NULL.                     -999.25                     :NULL VALUE
WELL.         CHERVIL 1                               :Well Name
FLD .         CHERVIL                                 :Field
PROV.                                                 :Province
LOC .                                                 :Field Location
PD  .         MSL                                     :Permanent Datum
UWI .                                                 :Unique Well ID
ELZ .M               .00                              :Elevation Log Zero
OS  .                                                 :Services
SRVC.                                                 :Service company
DATE.                                                 :Date
~Curve Information
#MNEM   .UNIT             API CODE Curve Description
#------------             -------- -----------------
DEPT    .M                        :   1  Depth
DEP     .M                        :   2  Measured Depth
FDTU    .US/F                     :   3  Delta T
SGRC    .GAPI                     :   4  Gamma-Ray Log (Renamed from GR)
ACAL    .CM                       :   5  Caliper Log
SP      .MV                       :   6  Spontaneous Potential Log
LLS     .OHMM                     :   7  Shallow Laterolog
SEDP    .OHMM                     :   8  Laterolog Deep Resistivity
MSFL    .OHMM                     :   9  Micro Spherically Focused Log
PEF     .                         :  10  Photoelectric Factor
SBDC    .G/C3                     :  11  Compensated Formation Density Log
FSTP    .PU                       :  12  Neutron Log Porosity
DRHO    .G/C3                     :  13  Density Log Correction
NCNL    .CPS                      :  14
FCNL    .CPS                      :  15
THOR    .PPM                      :  16  Thorium
URAN    .PPM                      :  17  Uranium
POTA    .PU                       :  18  Potassium Concentration
SGR     .GAPI                     :  19  Spectral Gamma-Ray
CGR     .GAPI                     :  20  Computed Gamma-Ray (Thorium + Potassium)
~Parameter Information
#MNEM.UNIT       Value           Description
#------------    -----           -----------
BLI .M           2661.06        :Bottom log interval
TLI .M             39.47        :Top log interval
~Other Information
~A
# ...
  981.3036   980.9985   120.2344   118.3750   14.31250   68.18750   1.711563   1.542105   2.072266   3.050781   2.345703   42.22140   .0087891   1539.000   358.7500   19.23438  -1.115234   4.003906   128.8750   137.7500
  981.4560   981.1509   119.4844   129.5000   14.31250   67.96875   1.725688   1.567363   2.160156   3.009766   2.353516   39.93736   .0117188   1509.000   371.5000   17.85938  -.4018555   4.003906   127.0000   130.2500
  981.6084   981.3033   119.5781   130.0000   14.32031   67.71875   1.735312   1.605526   2.141276   2.945313   2.359375   38.32497   .0141602   1549.000   367.2500   16.56250   .1230469   4.101563   129.5000   128.5000
  981.7608   981.4557   120.4688   126.8125   14.39844   66.96875   1.711658   1.554229   2.057942   2.871094   2.355469   38.67250   .0102539   1462.000   388.5000   17.15625  -.1210938   4.150391   132.1250   133.0000
  981.9132   981.6082   121.6094   120.9375   14.40625   66.71875   1.686806   1.549634   1.954427   2.865234   2.347656   40.17613   .0048828   1447.000   377.5000   17.35938  -.2241211   4.150391   136.3750   138.1250
  982.0656   981.7605   122.4531   124.1250   14.40625   67.21875   1.598758   1.465463   1.961263   2.888672   2.343750   41.27553   .0034180   1493.000   341.5000   17.01563  -.2006836   4.199219   135.0000   136.6250
  982.2180   981.9128   122.6563   122.2500   15.21094   66.45313   1.565915   1.396111   1.908203   2.955078   2.343750   39.20506   .0073242   1491.000   365.5000   16.89063  -.1201172   4.199219   136.2500   137.2500
  982.3704   982.0653   122.8750   124.4375   16.51563   66.20313   1.545261   1.398045   1.626627   2.962891   2.353516   38.57442   .0112305   1457.000   361.5000   17.48438  -.4750977   4.199219   134.7500   138.6250
  982.5228   982.2177   123.3906   125.5000   16.17188   65.96094   1.552993   1.373260   1.392090   2.900391   2.355469   38.03293   .0073242   1441.000   361.7500   17.51563  -.5786133   4.248047   135.3750   140.1250
  982.6752   982.3701   123.4844   126.2500   14.60156   65.74219   1.564386   1.384058   .7687174   2.800781   2.359375   38.13581   .0097656   1442.000   360.5000   17.01563  -.2280273   4.199219   132.2500   134.1250
  982.8276   982.5225   123.3750   127.6250   15.35938   65.98438   1.565812   1.406849   1.648763   2.779297   2.353516   36.93544   .0083008   1503.000   395.7500   16.23438  -.0732422   4.248047   133.3750   134.0000
  982.9800   982.6749   122.8750   128.8750   16.04688   65.74219   1.571601   1.419569   1.773438   2.746094   2.355469   37.85554   .0122070   1487.000   366.0000   16.59375  -.0292969   4.199219   134.6250   134.8750
  983.1324   982.8273   122.0156   136.3750   15.38281   67.00000   1.615792   1.429189   1.784505   2.839844   2.355469   37.41472   .0097656   1505.000   394.7500   16.54688  -.0893555   4.199219   136.1250   136.7500
  983.2848   982.9797   121.6563   137.1250   16.46875   67.25000   1.666267   1.480226   1.597331   2.849609   2.353516   38.52399   .0107422   1487.000   373.2500   16.64063  -.1396484   4.150391   137.3750   138.5000
  983.4372   983.1321   121.3125   135.6250   17.01563   67.50000   1.688319   1.475777   1.665690   3.017578   2.345703   40.36137   .0126953   1477.000   366.2500   17.48438  -.8173828   4.296875   136.6250   143.1250
  983.5896   983.2845   121.4688   124.2500   15.10156   68.25000   1.658847   1.445878   1.649414   3.058594   2.343750   42.16788   .0361328   1505.000   360.5000   17.43750  -.5415039   4.101563   135.7500   140.1250
  983.7420   983.4369   123.9688   122.5625   16.46875   68.71875   1.636293   1.429550   1.034180   2.992188   2.291016   40.86915   .0507813   1403.000   333.7500   16.93750  -.5107422   4.150391   134.7500   138.8750
  983.8944   983.5894   127.5156   119.5625   16.70313   69.46875   1.641799   1.450554   .2898763   2.841797   2.224609   41.18156   .1000977   1318.000   297.7500   17.14063  -.7255859   4.199219   133.1250   138.8750
  984.0468   983.7417   129.9063   128.6250   15.15625   68.71875   1.607417   1.403949   .2636719   2.679688   2.183594   39.64809   .1533203   1352.000   350.7500   15.78125   .4575195   3.906250   136.2500   132.5000
  984.1992   983.8940   131.8125   126.1250   15.82031   69.17188   1.582985   1.418649   .8933918   2.367188   2.126953   39.51985   .1967773   1301.000   311.0000   16.18750   .1586914   3.906250   135.6250   134.3750
  984.3516   984.0465   134.6875   125.6875   16.82813   69.95313   1.606455   1.367886   1.124023   2.228516   1.969727   39.33841   .1547852   1209.000   293.7500   17.75000  -.7543945   3.906250   131.6250   137.7500
  984.5040   984.1989   137.5938   120.7500   17.00000   69.20313   1.535824   1.335964   .3211263   2.138672   1.762695   42.84466   .1000977   1094.000   273.5000   16.31250  -.2480469   3.906250   125.6250   127.5625
  984.6564   984.3513   138.0313   121.3750   17.71875   69.20313   1.447354   1.265351   .3409830   2.224609   1.693359   46.20193   .0854492   1139.000   269.0000   16.81250  -.7075195   4.052734   119.1250   124.8125
  984.8088   984.5037   135.9063   120.3125   18.00000   68.48438   1.431061   1.252264   .1793620   2.357422   1.740234   46.88407   .1147461   1306.000   260.2500   16.82813  -.3872070   3.955078   118.7500   121.8750
  984.9612   984.6561   131.3906   117.6875   17.18750   68.45313   1.479436   1.224637   .4138997   2.542969   1.911133   42.18868   .1406250   1360.000   297.2500   16.60938  -.0600586   3.906250   119.0000   119.4375
  985.1136   984.8085   126.7188   116.9375   17.12500   67.93750   1.448137   1.259232   .3385416   2.738281   2.068359   39.14194   .1308594   1357.000   333.7500   16.64063  -.4663086   4.150391   124.8750   128.6250
  985.2660   984.9609   126.0781   115.6875   16.87500   66.93750   1.558096   1.310015   .3020833   2.851563   2.193359   38.35029   .0917969   1396.000   356.0000   18.21875  -1.094727   4.199219   126.5000   135.2500
  985.4184   985.1133   127.5938   118.0000   16.50000   67.18750   1.585333   1.377308   .2692057   2.867188   2.255859   40.48578   .0693359   1448.000   350.7500   18.35938  -1.208984   4.199219   127.3750   137.1250
  985.5708   985.2657   128.5938   112.1250   18.17188   66.46875   1.680920   1.427886   1.044271   2.796875   2.257813   41.08450   .0537109   1385.000   344.7500   17.93750  -.8144531   4.101563   127.8125   134.3750
  985.7232   985.4181   129.4063   114.7500   15.82031   66.70313   1.702821   1.462876   1.736328   2.779297   2.296875   40.70910   .0595703   1465.000   322.2500   18.70313  -1.100586   4.150391   130.1250   139.0000
  985.8756   985.5706   129.2500   117.2500   17.17188   66.50000   1.718260   1.462432   1.829102   2.832031   2.292969   38.55389   .0336914   1492.000   378.7500   17.65625  -.5083008   4.052734   131.3750   135.5000
  986.0280   985.7229   128.2656   124.9375   18.34375   66.00000   1.745557   1.476213   1.612956   2.888672   2.304688   38.11546   .0268555   1447.000   363.2500   16.56250   .2631836   3.955078   131.3750   129.2500
  986.1804   985.8752   127.8125   120.1875   17.31250   66.46875   1.749143   1.492118   1.521484   2.796875   2.289063   40.09235   .0151367   1432.000   341.2500   16.25000   .5141602   3.906250   129.6250   125.5625
  986.3328   986.0277   128.0781   116.5625   14.53125   65.96094   1.755350   1.553057   1.140299   2.769531   2.298828   38.69552   .0214844   1397.000   357.7500   17.07813   .1958008   3.857422   132.0000   130.5000
  986.4852   986.1801   128.4688   121.7500   14.01563   65.96094   1.747612   1.543280   1.634440   2.728516   2.304688   39.46180   .0239258   1460.000   351.0000   16.82813   .2133789   3.955078   130.1250   128.3750
  986.6376   986.3325   128.6875   124.9375   13.96094   66.00000   1.733931   1.514309   1.995768   2.732422   2.300781   38.45992   .0151367   1427.000   379.5000   17.26563  -.0781250   3.955078   134.6250   135.2500
  986.7900   986.4849   128.8125   130.5000   13.96094   66.25000   1.677867   1.480244   1.739258   2.621094   2.296875   38.83169   .0092773   1454.000   350.7500   17.56250  -.4213867   4.101563   133.3750   136.7500
