~Version Information
VERS.                     2.0: CWLS log ASCII Standard Version 2.00
WRAP.                      NO: One line per depth step
~Well Information Block
#MNEM.UNIT                 Value                       Information
#------------              -----                       -----------
STRT.M                     39.6240                    :START
STOP.M                   2661.9708                    :STOP
STEP.M                       .1524                    :STEP
NULL.                     -999.25                     :NULL VALUE
WELL.         CHERVIL 1                               :Well Name
FLD .         CHERVIL                                 :Field
PROV.                                                 :Province
LOC .                                                 :Field Location
PD  .         MSL                                     :Permanent Datum
UWI .                                                 :Unique Well ID
ELZ .M               .00                              :Elevation Log Zero
OS  .                                                 :Services
SRVC.                                                 :Service company
DATE.                                                 :Date
~Curve Information
#MNEM   .UNIT             API CODE Curve Description
#------------             -------- -----------------
DEPT    .M                        :   1  Depth
DEP     .M                        :   2  Measured Depth
FDTU    .US/F                     :   3  Delta T
SGRC    .GAPI                     :   4  Gamma-Ray Log (Renamed from GR)
ACAL    .CM                       :   5  Caliper Log
SP      .MV                       :   6  Spontaneous Potential Log
LLS     .OHMM                     :   7  Shallow Laterolog
SEDP    .OHMM                     :   8  Laterolog Deep Resistivity
MSFL    .OHMM                     :   9  Micro Spherically Focused Log
PEF     .                         :  10  Photoelectric Factor
SBDC    .G/C3                     :  11  Compensated Formation Density Log
FSTP    .PU                       :  12  Neutron Log Porosity
DRHO    .G/C3                     :  13  Density Log Correction
NCNL    .CPS                      :  14
FCNL    .CPS                      :  15
THOR    .PPM                      :  16  Thorium
URAN    .PPM                      :  17  Uranium
POTA    .PU                       :  18  Potassium Concentration
SGR     .GAPI                     :  19  Spectral Gamma-Ray
CGR     .GAPI                     :  20  Computed Gamma-Ray (Thorium + Potassium)
~Parameter Information
#MNEM.UNIT       Value           Description
#------------    -----           -----------
BLI .M           2661.06        :Bottom log interval
TLI .M             39.47        :Top log interval
~Other Information
~A
# ...
 2531.9736   2531.059   75.14063   36.65625   8.359375   69.66406   1.967308   2.137945   2.373047   1.868164   2.390625   13.81836   .0083008   4264.000   2202.000   5.355469  -.0073242   .7812500   34.71875   34.78125
 2532.1260   2531.211   75.23438   41.31250   8.359375   69.79688   2.065920   2.219456   2.486328   1.919922   2.398438   14.30664   .0048828   4280.000   2120.000   5.187500   .0908203   .8300781   37.87500   37.09375
 2532.2784   2531.364   75.12500   43.56250   8.359375   70.26953   2.146046   2.275957   2.664713   1.975586   2.400391   15.28320   .0014648   4424.000   2130.000   6.183594   .3491211   .7324219   41.68750   38.65625
 2532.4308   2531.516   74.76563   43.06250   8.359375   70.02344   2.156746   2.275135   2.857422   2.025391   2.406250   15.57617   .0029297   4380.000   2045.000   6.484375   .5415039   .8300781   44.15625   39.46875
 2532.5832   2531.668   74.31250   40.75000   8.359375   70.02734   2.158195   2.266319   2.591797   1.942383   2.400391   15.42969   .0043945   4472.000   2150.000   6.281250   .2324219   .7812500   43.09375   41.06250
 2532.7356   2531.821   74.01563   39.37500   8.359375   69.62109   2.147684   2.223356   2.555988   2.035156   2.402344   14.45313   .0083008   4528.000   2208.000   6.035156  -.1640625   .7812500   37.31250   38.75000
 2532.8880   2531.973   74.07813   38.06250   8.359375   69.37109   2.112112   2.222265   2.491535   1.998047   2.402344   13.91602   .0034180   4436.000   2296.000   6.398438  -.0932617   .6835938   35.65625   36.46875
 2533.0404   2532.125   74.14063   40.25000   8.359375   69.08984   2.094687   2.197231   2.541016   2.056641   2.412109   13.52539   .0073242   4428.000   2242.000   7.218750  -.2983398   .7324219   39.90625   42.50000
 2533.1928   2532.278   73.59375   43.15625   8.359375   69.24609   2.197315   2.280539   2.463541   1.854492   2.416016   14.20898   .0034180   4492.000   2282.000   8.351563   .2353516   .6835938   45.31250   43.28125
 2533.3452   2532.431   72.14063   47.87500   8.359375   69.33594   2.498810   2.638960   2.617188   1.820313   2.417969   13.96484   .0063477   4488.000   2162.000   8.398438   .1669922   .5859375   48.71875   47.28125
 2533.4976   2532.583   70.23438   49.56250   8.359375   68.70703   3.090275   3.342991   3.292969   1.855469   2.437500   13.72070   .0073242   4164.000   2170.000   8.906250   .3198242   .4394531   48.78125   46.00000
 2533.6500   2532.735   68.48438   47.68750   8.359375   69.11328   3.851362   4.257805   7.225258   2.042969   2.476563   14.50195   .0136719   4312.000   2240.000   8.257813   .2006836   .5859375   48.43750   46.68750
 2533.8024   2532.888   67.28125   41.62500   8.375000   68.82422   4.529343   4.922470   9.984375   2.154297   2.511719   14.89258   .0146484   5088.000   2274.000   7.054688  -.2182617   .8300781   44.53125   46.43750
 2533.9548   2533.040   66.56250   31.28125   8.359375   69.32031   4.872196   5.223537   7.002602   2.083984   2.521484   13.52539   .0073242   5632.000   2814.000   5.167969   .4379883   .6347656   38.84375   35.03125
 2534.1072   2533.192   65.90625   24.65625   8.359375   69.06250   4.318367   4.434231   4.575520   2.035156   2.507813   9.960938   .0014648   5588.000   3414.000   3.763672   .4565430   .6835938   31.81250   27.84375
 2534.2596   2533.345   65.51563   20.46875   8.359375   69.46484   3.969017   3.964033   4.583332   1.982422   2.500000   7.714844   .0024414   5604.000   3738.000   3.078125  -.0800781   .6835938   26.96875   27.67188
 2534.4120   2533.497   65.62500   18.17188   8.328125   69.33594   3.893158   3.893532   4.557289   2.025391   2.498047   7.128906   .0102539   5660.000   3678.000   3.314453  -.2875977   .6835938   24.31250   26.79688
 2534.5644   2533.649   66.03125   16.34375   8.273438   70.12109   3.825584   3.837385   4.513020   2.078125   2.498047   7.373047   .0131836   5428.000   3614.000   3.414063  -.0991211   .6835938   24.01563   24.87500
 2534.7168   2533.802   66.53125   19.18750   8.273438   70.03125   3.696119   3.644339   6.221352   2.226563   2.503906   7.519531   .0185547   5304.000   3440.000   3.501953  -.2709961   .6835938   25.70313   28.04688
 2534.8692   2533.955   67.07813   23.40625   8.273438   69.91016   3.564302   3.519199   4.829426   2.363281   2.503906   7.958984   .0175781   5184.000   3304.000   3.896484  -.1381836   .7324219   26.96875   28.15625
 2535.0216   2534.107   67.87500   28.09375   8.273438   69.75781   3.385052   3.307102   4.401039   2.416016   2.505859   8.789063   .0146484   5012.000   3150.000   4.500000  -.1337891   .6835938   29.51563   30.67188
 2535.1740   2534.259   68.82813   28.98438   8.273438   69.59766   3.245352   3.182680   4.004555   2.371094   2.501953   9.375000   .0146484   4960.000   2892.000   5.070313  -.1015625   .6347656   31.17188   32.03125
 2535.3264   2534.412   69.46875   29.48438   8.273438   69.59766   3.070580   3.033728   4.006508   2.253906   2.492188   10.15625   .0136719   4904.000   2902.000   5.382813   .0756836   .5371094   33.56250   32.90625
 2535.4788   2534.564   69.90625   30.90625   8.273438   69.18359   2.966791   2.954847   3.616535   2.171875   2.478516   10.30273   .0141602   4912.000   2808.000   5.722656   .3603516   .4882813   34.46875   31.34375
 2535.6312   2534.716   70.21875   37.03125   8.273438   69.08594   2.926151   2.910925   3.318359   2.148438   2.470703   10.49805   .0146484   4792.000   2750.000   6.031250   .2827148   .4394531   37.68750   35.25000
 2535.7836   2534.869   70.03125   37.00000   8.273438   68.45703   2.946228   2.982605   3.479816   2.250000   2.478516   10.69336   .0141602   4808.000   2768.000   6.648438   .6665039   .4394531   40.87500   35.09375
 2535.9360   2535.021   69.46875   36.03125   8.273438   68.98828   3.011438   3.012899   3.638020   2.269531   2.490234   10.88867   .0136719   4952.000   2776.000   5.847656   .6010742   .5859375   41.81250   36.59375
 2536.0884   2535.174   69.01563   31.43750   8.273438   69.11328   2.970839   3.025402   3.718098   2.162109   2.488281   11.32813   .0073242   5000.000   2800.000   5.484375   .1831055   .6347656   38.40625   36.81250
 2536.2408   2535.326   69.12500   29.20313   8.273438   69.98828   2.950382   2.994951   3.518229   2.087891   2.486328   11.37695   .0102539   5072.000   2772.000   4.847656   .0161133   .6347656   33.03125   32.90625
 2536.3932   2535.479   69.76563   25.09375   8.273438   69.85938   2.905407   2.966129   3.479166   2.078125   2.480469   11.03516   .0117188   4964.000   2774.000   4.675781  -.1181641   .6347656   31.17188   32.18750
 2536.5456   2535.631   70.51563   24.12500   8.273438   69.85938   2.870096   2.870655   3.710285   2.154297   2.474609   10.83984   .0166016   4792.000   2786.000   4.476563  -.0439453   .7324219   30.56250   30.93750
 2536.6980   2535.783   71.12500   26.43750   8.296875   69.73438   2.860466   2.930332   3.456379   2.156250   2.462891   10.69336   .0141602   4836.000   2706.000   4.449219  -.1674805   .7324219   29.81250   31.26563
 2536.8504   2535.936   71.26563   28.79688   8.359375   69.60938   2.866362   2.939907   3.152994   2.125000   2.458984   10.88867   .0136719   4880.000   2768.000   4.234375  -.3344727   .7324219   29.56250   32.43750
 2537.0028   2536.088   70.65625   29.26563   8.359375   69.51953   2.775013   2.824104   3.158854   2.048828   2.464844   10.93750   .0200195   4832.000   2722.000   4.453125  -.1064453   .7324219   31.07813   32.00000
 2537.1552   2536.240   69.60938   26.89063   8.359375   69.27344   2.745796   2.830894   3.122395   1.958008   2.476563   11.23047   .0297852   5116.000   2840.000   4.851563   .0893555   .7812500   32.18750   31.42188
 2537.3076   2536.393   68.67188   29.20313   8.359375   69.74219   2.789951   2.833269   3.187500   1.943359   2.472656   10.74219   .0263672   5248.000   2890.000   5.062500  -.2978516   .7324219   33.50000   36.06250
 2537.4600   2536.545   68.39063   29.17188   8.359375   69.61719   2.786064   2.855247   4.747395   1.900391   2.478516   10.10742   .0161133   5044.000   3010.000   5.863281  -.1279297   .6835938   35.68750   36.81250
