~Version Information
VERS.                     2.0: CWLS log ASCII Standard Version 2.00
WRAP.                      NO: One line per depth step
~Well Information Block
#MNEM.UNIT                 Value                       Information
#------------              -----                       -----------
STRT.M                     39.6240                    :START
STOP.M                   2661.9708                    :STOP
STEP.M                       .1524                    :STEP
NULL.                     -999.25                     :NULL VALUE
WELL.         CHERVIL 1                               :Well Name
FLD .         CHERVIL                                 :Field
PROV.                                                 :Province
LOC .                                                 :Field Location
PD  .         MSL                                     :Permanent Datum
UWI .                                                 :Unique Well ID
ELZ .M               .00                              :Elevation Log Zero
OS  .                                                 :Services
SRVC.                                                 :Service company
DATE.                                                 :Date
~Curve Information
#MNEM   .UNIT             API CODE Curve Description
#------------             -------- -----------------
DEPT    .M                        :   1  Depth
DEP     .M                        :   2  Measured Depth
FDTU    .US/F                     :   3  Delta T
SGRC    .GAPI                     :   4  Gamma-Ray Log (Renamed from GR)
ACAL    .CM                       :   5  Caliper Log
SP      .MV                       :   6  Spontaneous Potential Log
LLS     .OHMM                     :   7  Shallow Laterolog
SEDP    .OHMM                     :   8  Laterolog Deep Resistivity
MSFL    .OHMM                     :   9  Micro Spherically Focused Log
PEF     .                         :  10  Photoelectric Factor
SBDC    .G/C3                     :  11  Compensated Formation Density Log
FSTP    .PU                       :  12  Neutron Log Porosity
DRHO    .G/C3                     :  13  Density Log Correction
NCNL    .CPS                      :  14
FCNL    .CPS                      :  15
THOR    .PPM                      :  16  Thorium
URAN    .PPM                      :  17  Uranium
POTA    .PU                       :  18  Potassium Concentration
SGR     .GAPI                     :  19  Spectral Gamma-Ray
CGR     .GAPI                     :  20  Computed Gamma-Ray (Thorium + Potassium)
~Parameter Information
#MNEM.UNIT       Value           Description
#------------    -----           -----------
BLI .M           2661.06        :Bottom log interval
TLI .M             39.47        :Top log interval
~Other Information
~A
# ...
 1342.1868   1341.729   73.12500   100.1250   12.21094   75.90625   5.717100   4.965351   7.175781   2.482422   2.488281   17.28516   .0126953   3420.000   1407.000   7.527344  -1.255859   2.539063   69.31250   79.37500
 1342.3392   1341.882   70.32813   80.68750   12.17969   76.43750   5.177177   4.389235   8.440104   2.398438   2.455078   12.10938   .0073242   3408.000   1753.000   7.847656  -1.200195   2.343750   58.43750   68.06250
 1342.4916   1342.034   69.32813   65.87500   12.17969   75.93750   4.451723   3.752012   4.888021   2.394531   2.441406   9.570313   .0122070   3332.000   1741.000   9.601563  -2.566406   2.685547   54.81250   75.43750
 1342.6440   1342.187   69.62500   56.18750   12.17969   76.17188   3.816393   3.251687   4.615234   2.402344   2.447266   10.05859   .0185547   3372.000   1774.000   10.06250  -2.603516   2.685547   54.03125   74.93750
 1342.7964   1342.339   69.98438   53.12500   12.17969   76.45313   3.373459   2.922996   2.490234   2.507813   2.470703   10.30273   .0258789   3650.000   1782.000   10.82031  -2.537109   2.685547   53.96875   74.31250
 1342.9488   1342.491   69.59375   51.34375   12.21875   76.70313   3.248502   2.871389   2.444010   2.728516   2.507813   9.570313   .0273438   3596.000   1829.000   12.36719  -2.310547   2.587891   55.62500   74.18750
 1343.1012   1342.644   68.79688   50.31250   12.25781   75.90625   3.438398   3.123537   3.039713   3.011719   2.560547   8.007813   .0498047   3082.000   1764.000   15.67969  -3.462891   3.027344   64.50000   92.31250
 1343.2536   1342.796   69.59375   51.56250   12.31250   74.93750   3.896545   3.682611   4.163411   3.103516   2.580078   9.228516   .0541992   2382.000   1376.000   13.99219  -.7285156   3.076172   74.81250   80.68750
 1343.4060   1342.948   72.12500   70.00000   12.38281   74.18750   4.554372   4.582092   4.908854   2.861328   2.554688   13.96484   .0356445   2280.000   1026.000   14.35938  -.1000977   3.222656   92.43750   93.25000
 1343.5584   1343.101   75.10938   87.56250   12.50781   74.92188   5.191173   5.195068   8.005207   2.574219   2.501953   19.38477   .0029297   2268.000   827.0000   16.17188  -.3984375   3.564453   102.9375   106.1250
 1343.7108   1343.253   78.46875   105.9375   12.60156   73.70313   5.259781   4.978098   5.501302   2.457031   2.486328   21.58203   .0000000   2208.000   772.5000   15.84375   .0068359   3.466797   113.3750   113.3125
 1343.8632   1343.406   81.03125   110.6875   12.62500   72.95313   4.631594   4.262207   6.388021   2.414063   2.488281   22.55859   .0083008   2254.000   838.5000   14.74219   .6186523   3.466797   114.8750   109.8750
 1344.0156   1343.558   81.71875   116.3125   12.62500   71.95313   4.496740   4.117474   5.949219   2.562500   2.488281   22.85156   .0141602   2350.000   797.5000   15.24219   .5161133   3.417969   114.5625   110.3750
 1344.1680   1343.710   81.76563   113.3125   12.62500   73.23438   4.485367   4.112255   4.592447   2.582031   2.505859   23.09570   .0239258   2322.000   796.5000   14.99219   .8593750   3.320313   112.8750   105.9375
 1344.3204   1343.863   81.98438   110.7500   12.62500   72.23438   4.650884   4.210668   4.748697   2.789063   2.500000   22.70508   .0161133   2152.000   784.5000   14.53125   1.249023   3.320313   114.9375   104.9375
 1344.4728   1344.015   82.14063   113.5625   12.62500   72.23438   4.875400   4.458500   5.423177   2.921875   2.511719   23.04688   .0141602   2152.000   752.5000   15.70313   .7255859   3.369141   121.6250   115.7500
 1344.6252   1344.168   82.39063   117.3750   12.62500   71.73438   5.114717   4.732960   5.792969   3.017578   2.515625   24.51172   .0063477   2214.000   740.0000   16.14063   .3813477   3.466797   125.8125   122.7500
 1344.7776   1344.320   82.79688   121.5625   12.62500   72.48438   5.256012   4.868159   6.375000   2.878906   2.519531   25.34180   .0068359   2268.000   746.0000   16.50000   .4370117   3.271484   123.1875   119.6875
 1344.9300   1344.472   83.09375   117.0625   12.62500   73.01563   5.115328   4.777046   6.638021   2.816406   2.515625   24.02344   .0058594   2250.000   742.0000   17.81250  -.1450195   3.222656   119.3750   120.5625
 1345.0824   1344.625   83.28125   117.4375   12.62500   72.26563   4.966799   4.670358   6.669271   2.841797   2.505859   23.38867   .0034180   2216.000   814.5000   17.67188  -.1176758   3.271484   115.5625   116.5000
 1345.2348   1344.777   83.37500   117.0625   12.62500   72.78125   4.822045   4.544933   5.226563   2.886719   2.509766   24.26758   .0024414   2172.000   747.0000   16.98438   .4023438   3.173828   118.6875   115.4375
 1345.3872   1344.930   83.42188   118.9375   12.62500   72.25000   4.709529   4.540718   5.770833   2.810547   2.527344   25.63477   .0092773   2226.000   691.5000   17.25000   .2788086   3.271484   121.7500   119.5000
 1345.5396   1345.082   83.26563   117.1250   12.62500   72.21875   4.727658   4.563532   6.490885   2.693359   2.537109   26.41602   .0102539   2252.000   751.0000   16.42188   .5849609   3.320313   125.0625   120.3125
 1345.6920   1345.234   82.76563   114.3750   12.62500   71.96875   4.858624   4.725740   6.907552   3.046875   2.552734   25.19531   .0102539   2292.000   747.0000   17.76563  -.1835938   3.320313   122.0625   123.5000
 1345.8444   1345.387   81.92188   111.6875   12.62500   71.46875   4.861940   4.732818   6.457031   3.130859   2.550781   24.51172   .0034180   2192.000   739.0000   17.90625  -.1752930   3.271484   117.3750   118.7500
 1345.9968   1345.539   80.96875   108.4375   12.62500   71.28125   4.939883   4.809349   7.424479   3.187500   2.544922   23.73047   .0034180   2088.000   729.0000   17.65625   .0166016   3.271484   115.0000   114.8750
 1346.1492   1345.692   81.01563   106.5000   12.62500   70.25000   4.918526   4.801654   7.242188   2.861328   2.539063   24.02344   .0053711   2130.000   733.5000   17.40625   .2133789   3.271484   118.1250   116.3750
 1346.3016   1345.844   81.92188   109.3125   12.62500   70.46875   4.877010   4.772248   7.093750   3.017578   2.548828   25.58594   .0092773   2102.000   694.0000   17.65625   .4638672   3.173828   121.6875   117.9375
 1346.4540   1345.997   82.71875   117.4375   12.62500   69.71875   4.806374   4.708350   7.406250   2.921875   2.562500   25.78125   .0136719   2164.000   679.0000   17.42188   .6103516   3.125000   123.4375   118.5625
 1346.6064   1346.149   83.51563   124.5625   12.62500   69.18750   4.729141   4.629483   6.977864   2.869141   2.550781   26.12305   .0112305   2088.000   709.5000   16.15625   1.255859   3.125000   125.8750   115.8125
 1346.7588   1346.301   84.12500   130.8750   12.62500   68.89063   4.635502   4.590084   7.247396   2.658203   2.535156   25.92773   .0117188   2134.000   689.0000   17.04688   .5732422   3.271484   127.0625   122.5000
 1346.9112   1346.454   84.23438   130.2500   12.62500   68.67188   4.622769   4.557922   7.740885   2.851563   2.517578   27.53906   .0063477   2100.000   666.5000   16.84375   .6176758   3.271484   129.6250   124.6875
 1347.0636   1346.606   84.39063   125.9375   12.62500   69.43750   4.609754   4.492131   6.859375   2.947266   2.529297   27.19727   .0073242   2122.000   647.5000   17.09375   .3813477   3.271484   126.5000   123.4375
 1347.2160   1346.759   84.43750   124.3750   12.62500   68.93750   4.507351   4.474010   6.696614   3.156250   2.541016   26.12305   .0073242   2066.000   684.0000   16.59375   .3432617   3.369141   125.9375   123.1875
 1347.3684   1346.911   83.87500   123.1875   12.62500   68.18750   4.547481   4.413867   6.841146   3.658203   2.605469   25.14648   .0249023   2015.000   686.5000   16.46875   .1679688   3.466797   123.8750   122.5000
 1347.5208   1347.063   83.46875   129.2500   12.62500   68.96875   4.614243   4.499734   6.292969   3.574219   2.634766   24.95117   .0190430   2066.000   673.5000   17.06250   .0166016   3.417969   123.9375   123.8125
 1347.6732   1347.216   83.51563   122.8750   12.62500   68.70313   4.649963   4.572229   6.449219   3.611328   2.658203   26.12305   .0146484   2074.000   694.5000   16.51563   .4492188   3.320313   120.4375   116.8125
