~Version Information
VERS.                     2.0: CWLS log ASCII Standard Version 2.00
WRAP.                      NO: One line per depth step
~Well Information Block
#MNEM.UNIT                 Value                       Information
#------------              -----                       -----------
STRT.M                     39.6240                    :START
STOP.M                   2661.9708                    :STOP
STEP.M                       .1524                    :STEP
NULL.                     -999.25                     :NULL VALUE
WELL.         CHERVIL 1                               :Well Name
FLD .         CHERVIL                                 :Field
PROV.                                                 :Province
LOC .                                                 :Field Location
PD  .         MSL                                     :Permanent Datum
UWI .                                                 :Unique Well ID
ELZ .M               .00                              :Elevation Log Zero
OS  .                                                 :Services
SRVC.                                                 :Service company
DATE.                                                 :Date
~Curve Information
#MNEM   .UNIT             API CODE Curve Description
#------------             -------- -----------------
DEPT    .M                        :   1  Depth
DEP     .M                        :   2  Measured Depth
FDTU    .US/F                     :   3  Delta T
SGRC    .GAPI                     :   4  Gamma-Ray Log (Renamed from GR)
ACAL    .CM                       :   5  Caliper Log
SP      .MV                       :   6  Spontaneous Potential Log
LLS     .OHMM                     :   7  Shallow Laterolog
SEDP    .OHMM                     :   8  Laterolog Deep Resistivity
MSFL    .OHMM                     :   9  Micro Spherically Focused Log
PEF     .                         :  10  Photoelectric Factor
SBDC    .G/C3                     :  11  Compensated Formation Density Log
FSTP    .PU                       :  12  Neutron Log Porosity
DRHO    .G/C3                     :  13  Density Log Correction
NCNL    .CPS                      :  14
FCNL    .CPS                      :  15
THOR    .PPM                      :  16  Thorium
URAN    .PPM                      :  17  Uranium
POTA    .PU                       :  18  Potassium Concentration
SGR     .GAPI                     :  19  Spectral Gamma-Ray
CGR     .GAPI                     :  20  Computed Gamma-Ray (Thorium + Potassium)
~Parameter Information
#MNEM.UNIT       Value           Description
#------------    -----           -----------
BLI .M           2661.06        :Bottom log interval
TLI .M             39.47        :Top log interval
~Other Information
~A
# ...
 2295.1440   2294.229   73.75000   88.87500   8.656250   54.82031   5.956249   6.262531   4.850260   2.162109   2.494141   21.28906   .0200195   3660.000   1401.000   11.88281   1.625977   1.269531   82.93750   69.50000
 2295.2964   2294.382   72.18750   85.31250   8.617188   55.08203   6.375835   6.789575   7.623697   2.396484   2.511719   20.60547   .0234375   3462.000   1419.000   11.01563   1.151367   1.367188   78.43750   68.93750
 2295.4488   2294.534   71.75000   71.87500   8.609375   55.56250   7.095924   7.643630   5.812500   2.720703   2.537109   20.01953   .0161133   3416.000   1464.000   10.75000   .9262695   1.220703   71.56250   63.93750
 2295.6012   2294.687   70.56250   67.62500   8.648438   55.41016   7.717619   8.356663   5.744791   2.677734   2.570313   19.77539   .0141602   3448.000   1390.000   10.85156   .6723633   .8789063   67.18750   61.65625
 2295.7536   2294.839   69.37500   67.62500   8.648438   55.29297   8.569807   9.406439   9.708332   2.783203   2.601563   20.41016   .0151367   3392.000   1411.000   10.82031   .6147461   1.074219   67.62500   62.53125
 2295.9060   2294.991   67.00000   74.43750   8.617188   55.17578   10.57849   11.75752   10.40364   2.845703   2.625000   20.26367   .0136719   3396.000   1380.000   12.01563   1.152344   1.025391   71.50000   62.00000
 2296.0584   2295.144   67.00000   74.81250   8.617188   55.14844   12.58412   14.13586   8.270832   3.109375   2.632813   20.60547   .0146484   3258.000   1327.000   11.83594   .9648438   1.123047   73.62500   65.68750
 2296.2108   2295.296   68.37500   79.93750   8.570313   55.15234   10.91768   12.34022   16.28385   2.796875   2.613281   21.43555   .0097656   3242.000   1320.000   11.92969   .6630859   1.025391   72.37500   66.93750
 2296.3632   2295.448   68.75000   72.75000   8.601563   54.78125   10.07436   11.41733   27.41146   2.724609   2.580078   22.41211   .0151367   3308.000   1262.000   9.906250   .7636719   1.464844   70.25000   63.96875
 2296.5156   2295.601   69.75000   73.25000   8.617188   54.28906   9.240938   10.27401   8.705729   2.636719   2.582031   22.70508   .0292969   3308.000   1247.000   9.523438   .7426758   1.513672   71.68750   65.56250
 2296.6680   2295.753   72.18750   70.06250   8.625000   53.01172   8.025898   8.919603   7.421875   2.861328   2.587891   21.87500   .0302734   3322.000   1309.000   9.296875   .8129883   1.757813   70.31250   63.62500
 2296.8204   2295.906   70.00000   75.37500   8.617188   53.06836   8.445236   9.405176   8.102863   2.878906   2.589844   21.33789   .0126953   3452.000   1408.000   8.164063   .3002930   1.806641   65.87500   63.43750
 2296.9728   2296.058   68.37500   71.06250   8.601563   52.84570   10.23108   11.35387   7.423177   2.644531   2.591797   21.33789   .0087891   3380.000   1328.000   8.515625  -.2939453   1.513672   62.31250   64.75000
 2297.1252   2296.210   68.37500   69.06250   8.601563   52.75391   9.620169   10.59351   12.74739   2.466797   2.576172   21.92383   .0087891   3650.000   1437.000   9.023438   .2480469   1.562500   60.43750   58.37500
 2297.2776   2296.363   69.37500   67.18750   8.531250   52.79102   8.171619   8.842743   19.40104   2.330078   2.542969   21.09375   .0214844   3602.000   1408.000   9.390625  -.2646484   1.513672   60.84375   63.03125
 2297.4300   2296.515   72.00000   68.18750   8.500000   53.54883   7.021366   7.267243   10.08724   2.292969   2.509766   21.04492   .0258789   3584.000   1516.000   9.734375  -.4418945   1.464844   63.50000   67.12500
 2297.5824   2296.667   72.75000   59.87500   8.484375   55.05469   6.471896   6.498988   4.549479   2.292969   2.507813   20.75195   .0419922   3452.000   1364.000   11.08594   .3583984   1.464844   66.00000   63.06250
 2297.7348   2296.820   73.75000   60.87500   8.515625   55.69141   5.803507   5.799685   4.064453   2.201172   2.496094   21.19141   .0322266   3416.000   1364.000   11.78906  -.0107422   1.220703   68.87500   68.93750
 2297.8872   2296.973   74.00000   69.93750   8.507813   56.66406   5.785649   5.670228   6.647135   2.210938   2.478516   20.84961   .0219727   3370.000   1374.000   10.73438   .0385742   1.416016   70.75000   70.43750
 2298.0396   2297.125   73.56250   73.68750   8.492188   56.79688   6.350426   6.141464   6.941406   2.238281   2.462891   20.84961   .0092773   3406.000   1383.000   10.85156   .7524414   1.562500   68.68750   62.50000
 2298.1920   2297.277   74.37500   73.68750   8.515625   56.92969   6.535430   6.228135   4.369791   2.142578   2.474609   20.89844   .0131836   3502.000   1399.000   10.66406  -.3930664   1.416016   67.68750   70.93750
 2298.3444   2297.430   75.56250   66.56250   8.562500   57.19141   6.209761   5.940463   5.410156   2.113281   2.480469   21.33789   .0190430   3534.000   1437.000   11.54688  -.6064453   1.367188   59.96875   64.93750
 2298.4968   2297.582   74.56250   68.31250   8.562500   57.57813   6.399934   6.096443   7.585938   2.009766   2.482422   20.50781   .0263672   3638.000   1429.000   12.48438  -1.397461   1.318359   57.78125   69.31250
 2298.6492   2297.734   76.56250   65.81250   8.531250   57.58984   6.147410   5.796872   5.636719   2.136719   2.472656   19.92188   .0175781   3620.000   1553.000   14.84375  -.9160156   1.416016   61.78125   69.31250
 2298.8016   2297.887   75.56250   62.90625   8.531250   56.69141   5.970974   5.679317   4.092447   2.419922   2.511719   18.89648   .0190430   3470.000   1482.000   17.64063  -1.670898   1.513672   75.56250   89.37500
 2298.9540   2298.039   73.56250   69.12500   8.562500   55.95313   7.110303   6.881654   5.015625   2.642578   2.578125   20.45898   .0273438   3078.000   1318.000   18.62500  -.1000977   1.464844   93.56250   94.37500
 2299.1064   2298.191   72.37500   80.00000   8.617188   54.71484   9.285347   9.252275   5.614583   2.666016   2.623047   21.63086   .0292969   3208.000   1202.000   19.50000   .6918945   1.464844   104.0625   98.31250
 2299.2588   2298.344   70.75000   97.62500   8.617188   54.69531   14.63412   15.31390   31.80208   2.423828   2.626953   22.46094   .0195313   3190.000   1229.000   18.45313   .7070313   1.562500   108.8125   103.0000
 2299.4112   2298.497   69.75000   109.3750   8.648438   53.86719   25.75418   27.26744   32.00520   2.359375   2.603516   22.90039   .0107422   3106.000   1227.000   18.56250   .8471680   1.660156   106.5000   99.50000
 2299.5636   2298.649   70.75000   114.3750   8.656250   53.84961   29.88332   31.48067   35.46875   2.414063   2.607422   23.48633   .0112305   3048.000   1104.000   18.10938   .5527344   1.611328   107.6875   103.1250
 2299.7160   2298.801   73.00000   120.3125   8.656250   52.86523   29.79716   31.34560   37.31250   2.328125   2.603516   24.36523   .0126953   3082.000   1138.000   17.70313   .6333008   2.050781   109.4375   104.2500
 2299.8684   2298.954   73.75000   116.0000   8.648438   53.25781   30.25695   32.14503   49.58333   2.468750   2.601563   24.36523   .0136719   3178.000   1170.000   16.93750   .8378906   2.441406   114.3750   107.4375
 2300.0208   2299.106   74.37500   121.5000   8.656250   53.61719   30.70434   32.95383   39.39583   2.568359   2.595703   25.09766   .0097656   3076.000   1113.000   16.98438   .8544922   2.441406   115.3750   108.3125
 2300.1732   2299.258   73.37500   114.0000   8.656250   53.75977   30.42208   32.91557   45.45833   2.802734   2.599609   24.95117   .0107422   3238.000   1131.000   17.23438   .4399414   2.294922   110.0000   106.3750
 2300.3256   2299.411   72.00000   113.0625   8.671875   53.61914   28.70697   31.52857   51.83333   2.625000   2.605469   25.24414   .0117188   3178.000   1182.000   16.68750  -.4418945   2.294922   107.5625   111.1875
 2300.4780   2299.563   70.75000   101.8750   8.664063   53.22656   27.60687   30.50271   38.67708   2.453125   2.607422   23.33984   .0112305   3308.000   1175.000   17.87500   .2812500   2.148438   106.4375   104.1250
 2300.6304   2299.716   70.18750   105.9375   8.679688   53.49219   25.79712   28.12633   39.72916   2.216797   2.591797   23.19336   .0058594   3100.000   1256.000   18.90625   .1450195   1.904297   110.4375   109.1875
