~Version Information
VERS.                     2.0: CWLS log ASCII Standard Version 2.00
WRAP.                      NO: One line per depth step
~Well Information Block
#MNEM.UNIT                 Value                       Information
#------------              -----                       -----------
STRT.M                     39.6240                    :START
STOP.M                   2661.9708                    :STOP
STEP.M                       .1524                    :STEP
NULL.                     -999.25                     :NULL VALUE
WELL.         CHERVIL 1                               :Well Name
FLD .         CHERVIL                                 :Field
PROV.                                                 :Province
LOC .                                                 :Field Location
PD  .         MSL                                     :Permanent Datum
UWI .                                                 :Unique Well ID
ELZ .M               .00                              :Elevation Log Zero
OS  .                                                 :Services
SRVC.                                                 :Service company
DATE.                                                 :Date
~Curve Information
#MNEM   .UNIT             API CODE Curve Description
#------------             -------- -----------------
DEPT    .M                        :   1  Depth
DEP     .M                        :   2  Measured Depth
FDTU    .US/F                     :   3  Delta T
SGRC    .GAPI                     :   4  Gamma-Ray Log (Renamed from GR)
ACAL    .CM                       :   5  Caliper Log
SP      .MV                       :   6  Spontaneous Potential Log
LLS     .OHMM                     :   7  Shallow Laterolog
SEDP    .OHMM                     :   8  Laterolog Deep Resistivity
MSFL    .OHMM                     :   9  Micro Spherically Focused Log
PEF     .                         :  10  Photoelectric Factor
SBDC    .G/C3                     :  11  Compensated Formation Density Log
FSTP    .PU                       :  12  Neutron Log Porosity
DRHO    .G/C3                     :  13  Density Log Correction
NCNL    .CPS                      :  14
FCNL    .CPS                      :  15
THOR    .PPM                      :  16  Thorium
URAN    .PPM                      :  17  Uranium
POTA    .PU                       :  18  Potassium Concentration
SGR     .GAPI                     :  19  Spectral Gamma-Ray
CGR     .GAPI                     :  20  Computed Gamma-Ray (Thorium + Potassium)
~Parameter Information
#MNEM.UNIT       Value           Description
#------------    -----           -----------
BLI .M           2661.06        :Bottom log interval
TLI .M             39.47        :Top log interval
~Other Information
~A
# ...
 1218.1332   1217.676   83.96875   85.43750   12.55469   85.37500   1.790406   1.805815   1.592122   2.416016   2.498047   21.53320   .1284180   1993.000   769.5000   11.73438  -2.333984   3.564453   81.00000   99.75000
 1218.2856   1217.828   83.76563   87.25000   12.35938   86.84375   1.925633   1.936030   2.008463   2.275391   2.490234   20.60547   .1489258   1842.000   665.5000   11.71875  -2.230469   3.613281   83.37500   101.3125
 1218.4380   1217.980   84.17188   84.25000   12.22656   86.09375   1.904707   1.935460   2.168293   2.283203   2.435547   23.53516   .1469727   1823.000   674.0000   12.32031  -2.031250   3.564453   89.37500   105.7500
 1218.5904   1218.133   84.67188   80.43750   12.17969   86.81250   1.891851   1.884780   2.819010   2.296875   2.378906   26.56250   .1225586   2072.000   649.5000   12.07031  -1.659180   3.417969   95.18750   108.5000
 1218.7428   1218.285   85.81250   83.06250   12.32813   87.34375   1.843361   1.890753   2.008789   2.384766   2.369141   27.58789   .0971680   2188.000   645.0000   12.47656  -1.929688   3.417969   94.50000   110.0000
 1218.8952   1218.438   87.26563   85.50000   12.49219   88.56250   1.761148   1.832441   1.811523   2.355469   2.355469   26.56250   .0493164   2208.000   755.0000   12.30469  -1.979492   3.417969   92.75000   108.6875
 1219.0476   1218.590   88.12500   89.06250   12.55469   87.56250   1.685594   1.778997   1.906250   2.253906   2.367188   23.97461   .0502930   2068.000   691.5000   12.67188  -2.228516   3.466797   90.87500   108.8125
 1219.2000   1218.742   88.51563   95.43750   12.69531   86.84375   1.553146   1.594084   1.622070   2.326172   2.369141   21.92383   .0673828   1899.000   663.5000   11.79688  -1.782227   3.417969   89.43750   103.7500
 1219.3524   1218.895   88.15625   92.31250   12.42188   87.34375   1.446493   1.493157   1.656575   2.330078   2.396484   20.21484   .1079102   1730.000   689.0000   11.14844  -1.479492   3.417969   88.50000   100.3750
 1219.5048   1219.047   86.85938   91.31250   12.32813   87.56250   1.439573   1.470835   1.385091   2.396484   2.414063   20.80078   .1523438   1786.000   684.0000   10.27344  -.9926758   3.369141   89.56250   97.56250
 1219.6572   1219.200   85.92188   81.43750   12.26563   86.81250   1.510747   1.557788   1.206055   2.212891   2.406250   25.14648   .1713867   1892.000   634.0000   10.58594  -1.101563   3.320313   90.81250   99.68750
 1219.8096   1219.352   85.53125   82.87500   12.22656   85.84375   1.566021   1.632464   1.832356   2.171875   2.396484   28.95508   .1542969   2176.000   639.5000   11.24219  -1.141602   3.125000   92.18750   101.3125
 1219.9620   1219.504   85.03125   81.00000   12.42969   85.34375   1.736434   1.793921   1.889974   2.355469   2.378906   28.85742   .0859375   2358.000   694.0000   10.75000  -1.217773   3.222656   89.25000   99.00000
 1220.1144   1219.657   85.12500   81.68750   12.62500   86.09375   1.747334   1.824257   2.062500   2.564453   2.392578   24.95117   .0366211   2354.000   790.0000   12.10938  -2.142578   3.271484   85.12500   102.3125
 1220.2668   1219.809   85.35938   86.68750   12.58594   85.09375   1.690393   1.774735   1.642252   2.742188   2.402344   21.67969   .0346680   2200.000   845.0000   10.25781  -1.177734   3.222656   81.81250   91.31250
 1220.4192   1219.962   84.70313   85.00000   12.56250   84.34375   1.667088   1.723876   1.792643   2.763672   2.457031   19.67773   .0991211   2028.000   745.5000   10.84375  -1.367188   3.222656   79.37500   90.31250
 1220.5716   1220.114   83.46875   83.62500   12.43750   83.84375   1.705018   1.822073   1.934570   2.560547   2.494141   20.21484   .1508789   1935.000   753.5000   11.57031  -1.882813   3.320313   79.93750   95.06250
 1220.7240   1220.266   82.07813   81.31250   12.43750   84.12500   1.845293   1.971221   1.889322   2.507813   2.500000   21.67969   .1811523   1852.000   686.0000   10.75781  -1.063477   3.173828   81.56250   90.12500
 1220.8764   1220.419   80.96875   84.68750   12.43750   83.90625   2.051296   2.166718   2.281900   2.384766   2.423828   24.60938   .1455078   2022.000   669.0000   10.21875  -.5253906   3.125000   84.62500   88.87500
 1221.0288   1220.571   80.76563   89.68750   12.36719   82.59375   2.166664   2.287542   2.936197   2.619141   2.396484   26.31836   .1186523   2078.000   653.5000   10.69531  -.7280273   3.076172   85.87500   91.75000
 1221.1812   1220.724   81.76563   87.50000   12.41406   82.62500   2.204391   2.380331   3.005207   2.761719   2.371094   27.68555   .0615234   2150.000   707.0000   9.734375   .4028320   2.783203   85.31250   82.06250
 1221.3336   1220.876   83.01563   84.43750   12.50781   82.87500   2.180172   2.297974   1.952148   2.898438   2.384766   25.83008   .0395508   2316.000   699.0000   9.031250   .5141602   2.929688   84.56250   80.43750
 1221.4860   1221.029   83.82813   83.56250   12.46875   83.34375   2.070082   2.173901   1.974609   2.697266   2.431641   23.77930   .0786133   2088.000   745.0000   9.929688   .5791016   2.685547   86.56250   81.93750
 1221.6384   1221.181   84.53125   86.18750   12.53125   83.06250   2.066177   2.198473   2.304035   2.695313   2.503906   20.89844   .1464844   1877.000   716.5000   9.781250   .5224609   2.832031   86.50000   82.25000
 1221.7908   1221.333   85.01563   93.56250   12.53125   83.78125   2.128271   2.272747   2.205402   2.562500   2.525391   20.26367   .1650391   1708.000   629.5000   8.210938   1.128906   2.880859   91.56250   82.43750
 1221.9432   1221.486   85.46875   93.25000   12.53125   83.56250   2.075951   2.184473   2.317383   2.650391   2.455078   21.97266   .1293945   1708.000   640.0000   8.898438   1.267578   2.685547   88.12500   77.87500
 1222.0956   1221.638   85.73438   90.31250   12.35156   83.81250   1.991902   2.110306   2.371744   2.574219   2.367188   24.80469   .1015625   1761.000   592.0000   11.48438  -1.434570   3.125000   87.00000   98.50000
 1222.2480   1221.791   85.12500   84.12500   12.27344   84.06250   2.036915   2.112328   1.849935   2.603516   2.369141   28.85742   .1049805   2170.000   660.0000   12.68750  -1.706055   3.076172   78.43750   92.18750
 1222.4004   1221.943   84.06250   84.18750   12.37500   84.31250   1.957587   2.028751   1.824544   2.607422   2.396484   29.19922   .0903320   2412.000   688.5000   10.76563  -.6313477   3.027344   79.68750   84.81250
 1222.5528   1222.095   83.42188   84.87500   12.41406   84.34375   1.959218   2.072762   2.129883   2.623047   2.404297   26.75781   .0454102   2388.000   784.0000   11.14844  -.6821289   3.173828   80.06250   85.56250
 1222.7052   1222.248   83.62500   84.00000   12.39063   84.59375   2.000141   2.084782   1.965820   2.669922   2.417969   22.21680   .0566406   2202.000   789.5000   11.04688  -.5322266   3.173828   87.31250   91.56250
 1222.8576   1222.400   84.51563   84.00000   12.50781   85.34375   1.962266   1.988188   2.213867   2.650391   2.431641   20.55664   .0781250   1959.000   765.0000   10.21094  -.2539063   3.320313   91.18750   93.25000
 1223.0100   1222.552   85.17188   89.56250   12.43750   85.84375   1.936131   1.952011   1.880859   2.605469   2.449219   20.60547   .0996094   1891.000   697.5000   10.93750  -.7280273   3.320313   91.62500   97.50000
 1223.1624   1222.705   85.37500   93.18750   12.36719   84.87500   1.851497   1.838513   2.157551   2.570313   2.443359   21.87500   .0986328   1806.000   645.0000   10.71875  -.8330078   3.417969   88.12500   94.81250
 1223.3148   1222.857   85.21875   94.56250   12.24219   84.62500   1.884380   1.897730   2.125650   2.486328   2.419922   23.09570   .0815430   1858.000   660.5000   10.14844   .0224609   3.173828   88.62500   88.43750
 1223.4672   1223.010   84.42188   90.68750   12.31250   84.84375   1.935890   1.981812   1.503580   2.482422   2.416016   23.97461   .0644531   1997.000   676.0000   9.570313   .4296875   3.222656   91.25000   87.75000
 1223.6196   1223.162   83.46875   90.12500   12.51563   84.31250   2.039352   2.084440   2.299479   2.736328   2.423828   24.65820   .0419922   2240.000   748.5000   10.02344  -.0390625   3.320313   94.56250   94.87500
