~Version Information
VERS.                     2.0: CWLS log ASCII Standard Version 2.00
WRAP.                      NO: One line per depth step
~Well Information Block
#MNEM.UNIT                 Value                       Information
#------------              -----                       -----------
STRT.M                     39.6240                    :START
STOP.M                   2661.9708                    :STOP
STEP.M                       .1524                    :STEP
NULL.                     -999.25                     :NULL VALUE
WELL.         CHERVIL 1                               :Well Name
FLD .         CHERVIL                                 :Field
PROV.                                                 :Province
LOC .                                                 :Field Location
PD  .         MSL                                     :Permanent Datum
UWI .                                                 :Unique Well ID
ELZ .M               .00                              :Elevation Log Zero
OS  .                                                 :Services
SRVC.                                                 :Service company
DATE.                                                 :Date
~Curve Information
#MNEM   .UNIT             API CODE Curve Description
#------------             -------- -----------------
DEPT    .M                        :   1  Depth
DEP     .M                        :   2  Measured Depth
FDTU    .US/F                     :   3  Delta T
SGRC    .GAPI                     :   4  Gamma-Ray Log (Renamed from GR)
ACAL    .CM                       :   5  Caliper Log
SP      .MV                       :   6  Spontaneous Potential Log
LLS     .OHMM                     :   7  Shallow Laterolog
SEDP    .OHMM                     :   8  Laterolog Deep Resistivity
MSFL    .OHMM                     :   9  Micro Spherically Focused Log
PEF     .                         :  10  Photoelectric Factor
SBDC    .G/C3                     :  11  Compensated Formation Density Log
FSTP    .PU                       :  12  Neutron Log Porosity
DRHO    .G/C3                     :  13  Density Log Correction
NCNL    .CPS                      :  14
FCNL    .CPS                      :  15
THOR    .PPM                      :  16  Thorium
URAN    .PPM                      :  17  Uranium
POTA    .PU                       :  18  Potassium Concentration
SGR     .GAPI                     :  19  Spectral Gamma-Ray
CGR     .GAPI                     :  20  Computed Gamma-Ray (Thorium + Potassium)
~Parameter Information
#MNEM.UNIT       Value           Description
#------------    -----           -----------
BLI .M           2661.06        :Bottom log interval
TLI .M             39.47        :Top log interval
~Other Information
~A
# ...
 1815.8460   1815.236   78.37500   131.1250   10.51563   52.74609   17.64450   16.18311   24.54688   2.515817   2.544922   26.85547   .0000000   2780.000   911.0000   18.40625   1.476563   2.929688   133.5000   121.3125
 1815.9984   1815.388   78.75000   133.8750   10.53125   53.64063   16.48609   15.16674   23.61458   2.555250   2.570313   25.78125   .0053711   2920.000   957.5000   18.29688   1.236328   2.783203   127.8750   117.6875
 1816.1508   1815.541   77.00000   134.7500   10.54688   54.12500   16.18659   14.95634   24.02083   2.671788   2.628906   24.90234   .0102539   2970.000   1057.000   18.15625   .1020508   2.392578   118.6875   117.8125
 1816.3032   1815.693   75.56250   130.6250   10.54688   53.73438   16.68188   15.49251   24.35416   3.275556   2.705078   22.65625   .0097656   2910.000   1014.000   16.89063  -.4145508   2.685547   110.2500   113.6875
 1816.4556   1815.846   71.18750   126.3125   10.54688   53.75195   17.77925   16.52185   24.91666   3.914943   2.769531   22.07031   .0244141   2682.000   1041.000   17.95313  -.5405273   2.587891   111.2500   115.6875
 1816.6080   1815.998   68.00000   121.5000   10.54688   53.64648   20.05972   18.76668   27.76563   3.406991   2.748047   21.04492   .0288086   2820.000   1050.000   18.89063  -.2631836   2.587891   114.8125   117.0000
 1816.7604   1816.150   67.18750   116.6875   10.55469   54.88281   22.15326   20.71946   36.57291   2.767910   2.714844   22.50977   .0400391   2816.000   1058.000   18.76563   .0268555   2.636719   118.3750   118.1875
 1816.9128   1816.303   69.37500   114.4375   10.56250   55.15234   23.44276   21.86599   88.45833   2.486074   2.691406   23.48633   .0244141   2728.000   940.0000   18.62500  -.0239258   2.685547   120.2500   120.5000
 1817.0652   1816.455   69.75000   113.6250   10.58594   55.14063   23.84112   22.17892   56.70833   3.144931   2.707031   23.63281   .0136719   2768.000   957.5000   19.40625   .0961914   2.587891   121.1875   120.3750
 1817.2176   1816.608   71.00000   110.1875   10.60938   55.62500   23.18433   21.59972   39.16145   3.317151   2.708984   22.70508   .0166016   2782.000   1032.000   19.76563   .2895508   2.392578   121.1875   118.8125
 1817.3700   1816.760   72.00000   109.5000   10.63281   55.51953   22.04189   20.59364   34.13020   2.877539   2.660156   21.09375   .0214844   2746.000   1013.500   18.85938   .4086914   2.441406   120.2500   116.8750
 1817.5224   1816.913   72.18750   113.1875   10.66406   55.62891   21.05698   19.65353   43.88541   2.402281   2.617188   22.11914   .0258789   2662.000   1041.000   19.90625   .6972656   2.197266   125.2500   119.5000
 1817.6748   1817.065   74.56250   116.9375   10.67188   55.11328   20.05188   18.67508   40.77083   2.320831   2.583984   22.50977   .0131836   2770.000   948.0000   20.95313   1.534180   2.392578   130.5000   117.8750
 1817.8272   1817.217   77.56250   128.5000   10.67969   55.00781   19.02325   17.71671   28.42708   2.506364   2.580078   22.50977   .0073242   2778.000   995.0000   20.10938   1.325195   2.587891   135.1250   124.2500
 1817.9796   1817.370   77.37500   133.3750   10.70313   54.99219   18.01199   16.77754   24.99479   2.575669   2.576172   21.43555   .0068359   2642.000   1031.000   19.95313   1.204102   2.490234   131.6250   121.7500
 1818.1320   1817.522   77.75000   138.2500   10.71094   55.00781   17.65137   16.40128   23.17708   2.709411   2.546875   21.04492  -.0009766   2550.000   947.0000   18.48438   .8227539   2.734375   130.6250   123.8125
 1818.2844   1817.675   78.18750   130.5000   10.72656   54.65625   17.25205   16.09205   21.00000   2.652740   2.550781   22.07031   .0185547   2676.000   985.5000   18.12500   1.277344   2.783203   127.3125   116.7500
 1818.4368   1817.827   78.37500   129.7500   10.75000   53.89453   17.18284   16.05573   22.18750   2.830157   2.562500   23.04688   .0219727   2714.000   975.5000   18.32813   1.225586   2.294922   123.8750   113.7500
 1818.5892   1817.979   78.00000   131.8750   10.76563   53.88086   17.27486   16.15837   21.36979   2.945832   2.593750   23.82813   .0258789   2806.000   966.5000   17.70313   .5424805   2.441406   119.0625   114.5625
 1818.7416   1818.132   76.37500   137.1250   10.77344   54.02344   17.24162   16.19026   15.88021   2.907068   2.607422   23.58398   .0058594   2734.000   948.0000   17.93750   .5961914   2.490234   119.3125   114.3750
 1818.8940   1818.284   76.37500   132.3750   10.78906   54.38672   17.45504   16.32415   17.33073   2.908121   2.628906   23.68164   .0053711   2722.000   995.0000   18.32813   .9106445   2.539063   120.1875   112.6250
 1819.0464   1818.437   74.00000   129.2500   10.78906   53.49805   17.54429   16.57794   23.21875   2.858851   2.664063   22.60742   .0063477   2712.000   928.5000   18.71875   .5068359   2.392578   121.5625   117.3750
 1819.1988   1818.589   72.75000   120.4375   10.78906   53.26563   18.40211   17.30556   24.48958   3.066463   2.642578   23.68164   .0024414   2550.000   957.0000   18.34375   .5205078   2.587891   118.6875   114.3750
 1819.3512   1818.741   74.18750   119.0625   10.79688   53.37695   19.33146   18.26484   23.31250   2.923875   2.619141   24.12109   .0024414   2654.000   900.0000   19.06250   .5644531   2.294922   124.8125   120.1875
 1819.5036   1818.894   75.18750   113.3125   10.79688   53.64648   19.65054   18.52182   29.37500   2.782954   2.607422   26.12305   .0087891   2610.000   864.0000   20.79688   1.662109   2.343750   129.6250   115.8750
 1819.6560   1819.046   76.56250   123.6250   10.79688   54.88281   19.51441   18.40595   39.63020   2.971657   2.630859   25.29297   .0073242   2738.000   890.5000   20.76563   1.325195   2.343750   132.7500   121.8125
 1819.8084   1819.198   77.75000   127.8125   10.79688   54.99219   19.12460   18.05324   23.20833   3.110813   2.646484   24.51172   .0107422   2558.000   920.5000   21.14063   .5839844   2.050781   125.7500   120.9375
 1819.9608   1819.351   77.18750   134.3750   10.80469   55.59766   18.05171   17.02826   18.76563   3.552782   2.632813   24.07227   .0034180   2596.000   909.5000   20.54688   .2333984   2.050781   124.6250   122.6875
 1820.1132   1819.503   74.56250   130.7500   10.80469   55.57813   17.66396   16.78699   20.33333   3.158348   2.623047   26.17188   .0073242   2614.000   874.5000   19.96875   .8374023   2.490234   120.9375   114.0625
 1820.2656   1819.656   75.37500   127.1875   10.80469   55.62500   18.39893   17.44125   31.38021   3.056065   2.599609   26.12305   .0058594   2684.000   836.5000   18.31250   .3496094   2.392578   123.3750   120.5000
 1820.4180   1819.808   75.37500   124.0625   10.80469   56.60938   18.17944   17.21413   30.16666   2.964775   2.642578   26.12305   .0405273   2540.000   892.5000   20.10938   .6796875   2.246094   121.5625   115.9375
 1820.5704   1819.960   75.18750   124.5000   10.80469   56.62500   17.99056   17.11536   34.36979   3.037640   2.662109   24.65820   .0566406   2606.000   872.0000   19.46875   1.244141   2.294922   125.1250   114.8750
 1820.7228   1820.113   77.00000   126.5625   10.82813   56.89453   18.51233   17.56546   20.95833   3.156377   2.656250   24.41406   .0429688   2536.000   873.5000   19.89063   1.214844   2.197266   128.6250   118.6250
 1820.8752   1820.265   75.56250   129.2500   10.82813   56.29297   17.90252   17.01337   20.68750   2.968508   2.615234   23.97461   .0112305   2596.000   928.0000   20.43750   1.533203   2.343750   131.6250   118.9375
 1821.0276   1820.418   75.75000   126.5625   10.83594   56.19141   18.23952   17.26223   18.20833   2.980921   2.582031   24.95117   .0024414   2504.000   865.0000   19.81250   1.710938   2.392578   130.8750   116.8125
 1821.1800   1820.570   77.18750   133.7500   10.83594   56.43750   18.75401   17.66275   18.18489   2.891975   2.574219   26.22070   .0083008   2738.000   881.5000   19.64063   1.268555   2.099609   129.8750   119.5000
 1821.3324   1820.722   76.56250   138.1250   10.84375   56.26953   18.70024   17.57270   18.17708   2.692768   2.564453   26.61133   .0097656   2702.000   882.5000   20.14063   1.888672   2.099609   127.4375   111.8125
