~Version Information
VERS.                     2.0: CWLS log ASCII Standard Version 2.00
WRAP.                      NO: One line per depth step
~Well Information Block
#MNEM.UNIT                 Value                       Information
#------------              -----                       -----------
STRT.M                     39.6240                    :START
STOP.M                   2661.9708                    :STOP
STEP.M                       .1524                    :STEP
NULL.                     -999.25                     :NULL VALUE
WELL.         CHERVIL 1                               :Well Name
FLD .         CHERVIL                                 :Field
PROV.                                                 :Province
LOC .                                                 :Field Location
PD  .         MSL                                     :Permanent Datum
UWI .                                                 :Unique Well ID
ELZ .M               .00                              :Elevation Log Zero
OS  .                                                 :Services
SRVC.                                                 :Service company
DATE.                                                 :Date
~Curve Information
#MNEM   .UNIT             API CODE Curve Description
#------------             -------- -----------------
DEPT    .M                        :   1  Depth
DEP     .M                        :   2  Measured Depth
FDTU    .US/F                     :   3  Delta T
SGRC    .GAPI                     :   4  Gamma-Ray Log (Renamed from GR)
ACAL    .CM                       :   5  Caliper Log
SP      .MV                       :   6  Spontaneous Potential Log
LLS     .OHMM                     :   7  Shallow Laterolog
SEDP    .OHMM                     :   8  Laterolog Deep Resistivity
MSFL    .OHMM                     :   9  Micro Spherically Focused Log
PEF     .                         :  10  Photoelectric Factor
SBDC    .G/C3                     :  11  Compensated Formation Density Log
FSTP    .PU                       :  12  Neutron Log Porosity
DRHO    .G/C3                     :  13  Density Log Correction
NCNL    .CPS                      :  14
FCNL    .CPS                      :  15
THOR    .PPM                      :  16  Thorium
URAN    .PPM                      :  17  Uranium
POTA    .PU                       :  18  Potassium Concentration
SGR     .GAPI                     :  19  Spectral Gamma-Ray
CGR     .GAPI                     :  20  Computed Gamma-Ray (Thorium + Potassium)
~Parameter Information
#MNEM.UNIT       Value           Description
#------------    -----           -----------
BLI .M           2661.06        :Bottom log interval
TLI .M             39.47        :Top log interval
~Other Information
~A
# ...
 1460.6016   1459.992   80.39063   128.0000   12.63281   63.74219   4.750150   4.391073   6.477864   3.226563   2.583984   20.70313   .0107422   2310.000   841.0000   17.73438   .9946289   3.222656   128.8750   120.9375
 1460.7540   1460.144   80.21875   126.3125   12.53125   65.00000   4.712180   4.425705   5.557291   2.953125   2.550781   21.87500   .0068359   2304.000   895.0000   18.23438   .8618164   3.173828   129.8750   122.9375
 1460.9064   1460.296   80.20313   130.1250   12.56250   63.75000   4.710597   4.409104   5.878906   3.015625   2.535156   21.92383   .0073242   2510.000   832.0000   18.70313   .4238281   3.222656   126.6875   123.3125
 1461.0588   1460.449   80.10938   129.8750   12.62500   63.96875   4.682261   4.374144   6.317708   3.048828   2.527344   22.60742   .0063477   2606.000   944.5000   18.65625   .6796875   3.125000   122.8750   117.3750
 1461.2112   1460.601   79.92188   131.0000   12.73438   63.50000   4.769017   4.402174   6.555989   3.082031   2.544922   21.33789   .0053711   2580.000   945.0000   17.17188   1.460938   3.173828   124.8750   113.1250
 1461.3636   1460.754   79.62500   127.2500   12.80469   64.03906   4.685246   4.342583   6.143229   2.894531   2.566406   21.43555   .0058594   2536.000   921.5000   17.00000   1.553711   3.271484   124.2500   111.7500
 1461.5160   1460.906   78.98438   129.6250   12.81250   63.51563   4.718485   4.474253   5.860677   2.890625   2.570313   20.60547   .0073242   2596.000   930.0000   17.04688   1.222656   3.417969   125.5625   115.7500
 1461.6684   1461.059   77.98438   125.1250   12.71875   62.51563   5.050528   4.734415   7.244791   2.769531   2.558594   18.31055   .0024414   2488.000   974.5000   17.85938   .6621094   3.564453   123.7500   118.4375
 1461.8208   1461.211   77.46875   125.5625   12.62500   62.77344   5.215836   4.881090   8.420572   2.947266   2.550781   17.62695   .0034180   2330.000   1024.000   18.25000   .6523438   3.515625   128.3750   123.1875
 1461.9732   1461.363   78.31250   120.0000   12.62500   62.78125   5.256886   4.890064   9.041666   3.025391   2.550781   18.21289   .0048828   2422.000   916.5000   17.65625   1.229492   3.417969   131.3750   121.5000
 1462.1256   1461.516   80.10938   123.9375   12.62500   62.00000   5.203838   4.855428   8.339844   3.193359   2.560547   21.14258   .0058594   2326.000   871.0000   17.53125   1.175781   3.466797   133.6250   124.2500
 1462.2780   1461.668   82.31250   121.4375   12.62500   61.75000   5.038590   4.660218   6.130208   2.978516   2.558594   22.99805  -.0024414   2328.000   807.0000   17.89063   1.143555   3.417969   135.0000   125.8750
 1462.4304   1461.821   84.01563   131.0000   12.70313   61.00781   4.671105   4.385345   6.777344   2.972656   2.558594   24.41406  -.0048828   2324.000   768.0000   18.20313   1.307617   3.271484   135.8750   125.4375
 1462.5828   1461.973   84.56250   129.7500   12.71094   61.50781   4.560633   4.315576   6.604166   2.960938   2.560547   25.63477  -.0039063   2356.000   794.0000   17.50000   1.448242   3.320313   139.3750   127.6875
 1462.7352   1462.125   84.06250   135.6250   12.72656   61.76563   4.648490   4.275030   6.704427   3.042969   2.576172   24.12109   .0043945   2440.000   777.0000   17.85938   1.870117   3.027344   138.6250   123.6250
 1462.8876   1462.278   82.65625   137.0000   12.80469   62.26563   4.667923   4.298779   6.595052   2.810547   2.585938   22.31445   .0087891   2410.000   886.5000   17.79688   1.980469   2.880859   137.3750   121.5000
 1463.0400   1462.430   81.10938   137.1250   12.81250   62.52344   4.817917   4.411819   7.130208   2.769531   2.582031   19.14063   .0097656   2318.000   891.5000   16.76563   2.390625   2.880859   131.1250   111.9375
 1463.1924   1462.583   80.28125   129.8750   12.74219   63.03125   4.868535   4.471774   7.190104   2.779297   2.552734   19.28711   .0000000   2296.000   925.5000   16.79688   2.244141   2.978516   133.0000   114.9375
 1463.3448   1462.735   80.34375   129.5000   12.71094   64.03906   4.909163   4.530459   5.466146   2.945313   2.537109   19.53125  -.0048828   2370.000   865.5000   17.87500   1.397461   3.222656   133.7500   122.5625
 1463.4972   1462.887   81.48438   129.2500   12.71094   64.04688   4.899891   4.522026   6.130208   2.964844   2.541016   20.84961  -.0058594   2334.000   881.0000   18.17188   1.030273   3.271484   137.5000   129.1250
 1463.6496   1463.040   82.82813   133.5000   12.71094   63.80469   4.880750   4.524034   6.546875   2.777344   2.550781   20.36133  -.0009766   2422.000   880.0000   18.25000   .8720703   3.320313   135.2500   128.2500
 1463.8020   1463.192   82.89063   127.0000   12.71094   64.03125   4.943816   4.580015   6.714844   2.611328   2.548828   20.65430   .0000000   2420.000   915.5000   19.32813   .2875977   3.320313   133.7500   131.3750
 1463.9544   1463.344   81.75000   127.3750   12.71094   64.28125   4.997684   4.657057   6.825521   2.466797   2.535156   19.92188   .0000000   2492.000   920.0000   18.67188   .8637695   3.173828   131.5000   124.6250
 1464.1068   1463.497   80.93750   126.8125   12.57813   65.00781   5.046030   4.671107   6.269531   2.769531   2.541016   19.53125   .0053711   2516.000   969.0000   18.57813   .7900391   3.271484   129.8750   123.5625
 1464.2592   1463.649   81.21875   127.5625   12.57031   64.54688   4.944020   4.629384   7.100260   3.294922   2.562500   19.53125   .0097656   2650.000   1038.000   18.59375   .5649414   3.369141   129.8750   125.3750
 1464.4116   1463.802   80.51563   128.5000   12.62500   64.80469   5.038973   4.677664   6.710938   4.441406   2.619141   18.94531   .0112305   2894.000   1068.000   17.85938   1.272461   3.222656   131.3750   121.1875
 1464.5640   1463.954   78.26563   127.3750   12.62500   64.03125   5.418173   5.076697   5.889322   3.724609   2.628906   18.06641   .0014648   2814.000   1135.000   17.70313   1.661133   3.076172   132.5000   119.1875
 1464.7164   1464.106   76.51563   127.8125   12.62500   64.57031   5.867852   5.491723   6.631510   3.253906   2.597656   16.55273  -.0014648   2642.000   1116.000   18.37500   1.152344   3.173828   132.2500   122.9375
 1464.8688   1464.259   75.82813   127.5625   12.69531   64.30469   5.893189   5.553241   9.609375   2.683594   2.533203   17.57813   .0043945   2518.000   1048.000   17.93750   1.377930   3.173828   135.5000   124.4375
 1465.0212   1464.411   76.64063   134.3750   12.68750   64.02344   5.767660   5.325686   18.35677   2.861328   2.515625   18.89648   .0200195   2556.000   949.0000   19.12500   .4804688   3.369141   136.7500   132.8750
 1465.1736   1464.564   78.64063   142.0000   12.69531   63.53125   5.281605   4.922244   6.555989   2.855469   2.523438   18.50586   .0351563   2610.000   990.5000   20.09375  -.2939453   3.369141   137.2500   139.6250
 1465.3260   1464.716   79.73438   146.3750   12.57813   63.53906   5.103975   4.758814   6.888021   2.949219   2.515625   16.11328   .0283203   2564.000   1103.000   19.46875   .1372070   3.173828   127.2500   126.1875
 1465.4784   1464.868   79.53125   137.3750   12.62500   64.29688   5.011069   4.698729   6.779947   2.732422   2.509766   15.86914   .0185547   2396.000   1094.000   19.40625  -.2622070   3.369141   127.0625   129.1250
 1465.6308   1465.021   79.32813   129.1250   12.64063   63.77344   5.097517   4.734382   12.52864   3.021484   2.509766   17.72461   .0087891   2494.000   965.0000   20.34375  -.2905273   3.417969   129.3750   131.7500
 1465.7832   1465.173   79.82813   125.5625   12.71094   63.74219   5.102466   4.733753   7.005208   3.248047   2.535156   20.70313   .0014648   2600.000   956.0000   20.14063  -.1323242   3.369141   138.7500   139.8750
 1465.9356   1465.326   80.32813   131.2500   12.71094   63.49219   5.040445   4.650175   6.095052   3.498047   2.568359   20.99609   .0014648   2766.000   984.5000   20.93750  -.7978516   3.515625   140.8750   147.2500
 1466.0880   1465.478   79.56250   135.3750   12.79688   63.71094   5.098035   4.771665   6.045572   3.341797   2.582031   20.06836   .0058594   2664.000   1005.500   21.28125  -1.141602   3.515625   140.8750   150.1250
