~Version Information
VERS.                     2.0: CWLS log ASCII Standard Version 2.00
WRAP.                      NO: One line per depth step
~Well Information Block
#MNEM.UNIT                 Value                       Information
#------------              -----                       -----------
STRT.M                     39.6240                    :START
STOP.M                   2661.9708                    :STOP
STEP.M                       .1524                    :STEP
NULL.                     -999.25                     :NULL VALUE
WELL.         CHERVIL 1                               :Well Name
FLD .         CHERVIL                                 :Field
PROV.                                                 :Province
LOC .                                                 :Field Location
PD  .         MSL                                     :Permanent Datum
UWI .                                                 :Unique Well ID
ELZ .M               .00                              :Elevation Log Zero
OS  .                                                 :Services
SRVC.                                                 :Service company
DATE.                                                 :Date
~Curve Information
#MNEM   .UNIT             API CODE Curve Description
#------------             -------- -----------------
DEPT    .M                        :   1  Depth
DEP     .M                        :   2  Measured Depth
FDTU    .US/F                     :   3  Delta T
SGRC    .GAPI                     :   4  Gamma-Ray Log (Renamed from GR)
ACAL    .CM                       :   5  Caliper Log
SP      .MV                       :   6  Spontaneous Potential Log
LLS     .OHMM                     :   7  Shallow Laterolog
SEDP    .OHMM                     :   8  Laterolog Deep Resistivity
MSFL    .OHMM                     :   9  Micro Spherically Focused Log
PEF     .                         :  10  Photoelectric Factor
SBDC    .G/C3                     :  11  Compensated Formation Density Log
FSTP    .PU                       :  12  Neutron Log Porosity
DRHO    .G/C3                     :  13  Density Log Correction
NCNL    .CPS                      :  14
FCNL    .CPS                      :  15
THOR    .PPM                      :  16  Thorium
URAN    .PPM                      :  17  Uranium
POTA    .PU                       :  18  Potassium Concentration
SGR     .GAPI                     :  19  Spectral Gamma-Ray
CGR     .GAPI                     :  20  Computed Gamma-Ray (Thorium + Potassium)
~Parameter Information
#MNEM.UNIT       Value           Description
#------------    -----           -----------
BLI .M           2661.06        :Bottom log interval
TLI .M             39.47        :Top log interval
~Other Information
~A
# ...
 2650.3884   2649.474   66.67188   70.68750   8.359375    -999.25   14.68635   14.68974   17.80728   1.977539   2.525391   15.03906   .0087891   4428.000   2112.000   10.28125   .4487305   1.318359   71.87500   68.00000
 2650.5408   2649.626   67.62500   70.56250   8.351563    -999.25   9.507706   9.325188   24.21353   1.955078   2.498047   14.74609   .0092773   4400.000   2180.000   10.58594   .5024414   1.171875   69.56250   65.18750
 2650.6932   2649.778   68.28125   60.93750   8.273438    -999.25   8.303970   7.889778   11.13541   1.946289   2.484375   14.84375   .0097656   4388.000   2184.000   11.00781   .3505859   .9765625   68.43750   65.37500
 2650.8456   2649.931   67.92188   58.96875   8.273438    -999.25   7.238510   6.565010   4.470051   1.924805   2.498047   14.94141   .0131836   4460.000   2122.000   10.29688   .3881836   1.025391   64.06250   60.71875
 2650.9980   2650.083   68.06250   55.06250   8.312500    -999.25   6.219482   5.543221   6.151039   1.851563   2.509766   14.89258   .0136719   4540.000   2230.000   10.47656   .0678711   .7812500   64.00000   63.43750
 2651.1504   2650.236   69.26563   55.15625   8.273438    -999.25   6.464478   5.711182   5.891926   1.859375   2.513672   14.79492   .0151367   4680.000   2326.000   11.02344   .4125977   .8789063   61.37500   57.78125
 2651.3028   2650.388   71.01563   50.50000   8.312500    -999.25   6.538509   5.688850   8.540359   1.833008   2.494141   14.40430   .0170898   4888.000   2366.000   10.14063  -.0292969   .8300781   59.03125   59.28125
 2651.4552   2650.541   72.85938   43.37500   8.273438    -999.25   6.046089   5.161949   4.924477   1.825195   2.470703   13.76953   .0219727   4996.000   2546.000   7.851563   .6030273   .7324219   53.12500   47.87500
 2651.6076   2650.693   73.60938   37.62500   8.273438    -999.25   5.552731   4.660061   4.138020   1.743164   2.451172   12.20703   .0268555   5172.000   2758.000   6.089844   .6669922   .9277344   46.40625   40.62500
 2651.7600   2650.845   73.56250   31.82813   8.273438    -999.25   4.578884   3.746477   4.299477   1.732422   2.439453   10.93750   .0268555   5232.000   3002.000   5.585938   .1464844   .8789063   42.68750   41.40625
 2651.9124   2650.998   73.31250   34.84375   8.273438    -999.25   3.882803   3.116514   3.615234   1.729492   2.437500   10.00977   .0288086   5228.000   3084.000   6.109375   .4458008   .8300781   39.84375   36.00000
 2652.0648   2651.150   71.87500   37.84375   8.273438    -999.25   3.362524   2.837507   3.221354   1.794922   2.435547   9.765625   .0278320   5124.000   3030.000   7.058594   .5751953   .8789063   44.09375   39.12500
 2652.2172   2651.302   68.98438   46.12500   8.273438    -999.25   3.169611   2.700838   2.852213   1.867188   2.466797   10.93750   .0244141   4628.000   2742.000   9.078125   .7265625   .9277344   54.87500   48.56250
 2652.3696   2651.455   65.53125   61.90625   8.289063    -999.25   3.381201   2.929155   2.847656   1.907227   2.519531   12.40234   .0146484   4372.000   2256.000   12.53125   .3178711   1.171875   69.75000   67.00000
 2652.5220   2651.607   62.33594   76.00000   8.359375    -999.25   4.425545   3.950014   4.596352   1.935547   2.587891   14.06250   .0136719   4296.000   2148.000   16.17188  -.1132813   1.269531   87.06250   88.06250
 2652.6744   2651.760   60.53906   91.56250   8.359375    -999.25   6.999283   6.632153   66.83331   1.944336   2.619141   14.45313   .0136719   4332.000   2122.000   17.81250   .5083008   1.318359   95.87500   91.43750
 2652.8268   2651.912   60.64063   89.81250   8.359375    -999.25   14.32757   14.64085   55.79166   2.021484   2.615234   14.50195   .0200195   4300.000   2122.000   17.15625   .1357422   1.416016   100.7500   99.56250
 2652.9792   2652.064   61.49219   89.75000   8.359375    -999.25   34.12018   36.33249   60.82291   2.054688   2.605469   14.69727   .0229492   4240.000   2104.000   17.43750   .3398438   1.416016   100.4375   97.50000
 2653.1316   2652.217   62.33594   89.31250   8.359375    -999.25   34.30865   36.08258   37.53125   2.095703   2.578125   14.74609   .0141602   4108.000   1981.000   18.56250   .5400391   1.123047   102.2500   97.56250
 2653.2840   2652.369   63.37500   93.87500   8.359375    -999.25   29.03023   30.22807   27.31770   2.152344   2.560547   15.28320   .0126953   4082.000   2000.000   18.40625   .4868164   1.220703   103.3125   99.12500
 2653.4364   2652.521   64.42188   101.3125   8.335938    -999.25   23.69650   24.22859   23.98958   2.191406   2.552734   15.38086   .0112305   4172.000   1962.000   18.43750   .6733398   1.269531   106.6875   100.8750
 2653.5888   2652.674   65.37500   101.1250   8.273438    -999.25   19.14560   19.52234   28.82813   2.228516   2.542969   15.91797   .0107422   4180.000   2001.000   19.04688   .7368164   1.416016   107.8125   101.4375
 2653.7412   2652.827   66.32813   98.12500   8.273438    -999.25   16.45134   16.66148   16.52864   2.171875   2.535156   15.42969   .0068359   4256.000   1994.000   19.15625   .5190430   1.220703   109.5000   105.0000
 2653.8936   2652.979   66.98438   94.56250   8.273438    -999.25   14.46021   14.33669   12.84375   2.154297   2.519531   14.99023   .0034180   4312.000   2120.000   19.81250   .5834961   1.171875   107.8750   102.8125
 2654.0460   2653.131   67.43750   88.25000   8.273438    -999.25   13.00586   12.74549   12.21354   2.142578   2.513672   14.45313   .0043945   4236.000   2134.000   20.34375   .3735352   1.123047   109.8125   106.5625
 2654.1984   2653.284   68.09375   88.25000   8.273438    -999.25   12.25285   11.92372   10.42969   2.134766   2.513672   14.64844   .0073242   4296.000   2120.000   21.23438   .6499023   1.025391   112.3125   106.6875
 2654.3508   2653.436   68.75000   83.50000   8.273438    -999.25   11.55045   11.10275   10.35938   2.111328   2.511719   14.79492   .0073242   4404.000   2128.000   22.12500   .8452148   .9277344   116.1875   108.8750
 2654.5032   2653.588   69.04688   87.06250   8.273438    -999.25   10.81818   10.35012   10.47135   2.156250   2.513672   14.79492   .0092773   4288.000   2120.000   22.00000   .9389648   1.025391   115.5000   107.3750
 2654.6556   2653.741   69.23438   82.56250   8.273438    -999.25   10.20047   9.757942   10.48698   2.183594   2.515625   14.35547   .0146484   4388.000   2166.000   21.21875   .7441406   1.220703   116.6250   110.1875
 2654.8080   2653.893   69.37500   85.31250   8.273438    -999.25   9.275658   8.846741   10.48438   2.228516   2.527344   14.64844   .0268555   4264.000   2152.000   20.87500  -.3369141   1.757813   117.3750   120.3125
 2654.9604   2654.045   68.87500   77.87500   8.273438    -999.25   8.555183   8.252693   10.50520   2.078125   2.537109   14.59961   .0341797   4352.000   2096.000   18.93750   .2138672   2.050781   118.0625   116.1875
 2655.1128   2654.198   67.42188   76.25000   8.273438    -999.25   8.206909   8.008278   10.51041   1.994141   2.535156   14.99023   .0249023   4456.000   2214.000   15.85938   1.618164   1.904297   115.1875   101.1250
 2655.2652   2654.351   65.62500   68.68750   8.273438    -999.25   8.518341   8.487167   10.53385   1.922852   2.562500   14.20898   .0346680   4524.000   2186.000   13.34375   2.703125   1.855469   111.7500   88.31250
 2655.4176   2654.503   64.73438   70.18750   8.273438    -999.25   9.394951   9.510918   10.54688   2.031250   2.564453   13.91602   .0332031   4536.000   2368.000   13.19531   3.289063   1.611328   111.9375   83.43750
 2655.5700   2654.655   65.23438   71.18750   8.273438    -999.25   7.825871   8.222130   10.54166   2.093750   2.560547   13.47656   .0385742   4712.000   2424.000   17.00000   2.212891   1.269531   113.1250   93.93750
 2655.7224   2654.808   66.73438   71.12500   8.234375    -999.25   5.661015   6.135872   10.56510    -999.25   2.498047    -999.25   .0146484   4716.000   2378.000   19.48438   .9550781   1.318359   113.9375   105.6250
 2655.8748   2654.960   68.73438   71.50000   8.187500    -999.25   4.719318   5.027962   10.57031    -999.25   2.466797    -999.25   .0117188   4736.000   2422.000   19.31250   .5854492   1.562500   114.3750   109.3125
