~Version Information
VERS.                     2.0: CWLS log ASCII Standard Version 2.00
WRAP.                      NO: One line per depth step
~Well Information Block
#MNEM.UNIT                 Value                       Information
#------------              -----                       -----------
STRT.M                     39.6240                    :START
STOP.M                   2661.9708                    :STOP
STEP.M                       .1524                    :STEP
NULL.                     -999.25                     :NULL VALUE
WELL.         CHERVIL 1                               :Well Name
FLD .         CHERVIL                                 :Field
PROV.                                                 :Province
LOC .                                                 :Field Location
PD  .         MSL                                     :Permanent Datum
UWI .                                                 :Unique Well ID
ELZ .M               .00                              :Elevation Log Zero
OS  .                                                 :Services
SRVC.                                                 :Service company
DATE.                                                 :Date
~Curve Information
#MNEM   .UNIT             API CODE Curve Description
#------------             -------- -----------------
DEPT    .M                        :   1  Depth
DEP     .M                        :   2  Measured Depth
FDTU    .US/F                     :   3  Delta T
SGRC    .GAPI                     :   4  Gamma-Ray Log (Renamed from GR)
ACAL    .CM                       :   5  Caliper Log
SP      .MV                       :   6  Spontaneous Potential Log
LLS     .OHMM                     :   7  Shallow Laterolog
SEDP    .OHMM                     :   8  Laterolog Deep Resistivity
MSFL    .OHMM                     :   9  Micro Spherically Focused Log
PEF     .                         :  10  Photoelectric Factor
SBDC    .G/C3                     :  11  Compensated Formation Density Log
FSTP    .PU                       :  12  Neutron Log Porosity
DRHO    .G/C3                     :  13  Density Log Correction
NCNL    .CPS                      :  14
FCNL    .CPS                      :  15
THOR    .PPM                      :  16  Thorium
URAN    .PPM                      :  17  Uranium
POTA    .PU                       :  18  Potassium Concentration
SGR     .GAPI                     :  19  Spectral Gamma-Ray
CGR     .GAPI                     :  20  Computed Gamma-Ray (Thorium + Potassium)
~Parameter Information
#MNEM.UNIT       Value           Description
#------------    -----           -----------
BLI .M           2661.06        :Bottom log interval
TLI .M             39.47        :Top log interval
~Other Information
~A
# ...
 2052.6756   2051.913   75.56250   81.81250   8.937500   53.75586   8.749901   8.016884   9.901039   1.917969   2.601563   22.55859   .0126953   3232.000   1318.000   15.57031   .1865234   1.757813   92.31250   90.81250
 2052.8280   2052.065   75.75000   83.12500   8.953125   53.66797   8.872604   8.097076   8.305984   2.066406   2.564453   22.55859   .0146484   3374.000   1213.000   16.04688   .3603516   1.953125   96.37500   93.37500
 2052.9804   2052.218   77.37500   97.18750   8.906250   53.30078   9.203178   8.354645   15.64063   2.085938   2.568359   23.19336   .0122070   3394.000   1291.000   16.84375   .1040039   1.855469   102.0625   101.1875
 2053.1328   2052.371   75.56250   111.8125   8.929688   53.55859   10.43470   9.527061   15.76302   2.062500   2.576172   21.72852   .0087891   3088.000   1204.000   17.01563   .8359375   2.099609   108.8125   101.9375
 2053.2852   2052.523   75.18750   118.5625   8.882813   53.19336   13.84650   12.79527   16.34634   2.257813   2.591797   22.21680   .0068359   3218.000   1301.000   17.12500   1.549805   2.197266   113.6250   100.8750
 2053.4376   2052.675   75.18750   116.3125   8.859375   53.20508   13.91554   12.79192   17.73958   2.304688   2.605469   21.63086   .0053711   3414.000   1252.000   16.50000   1.217773   2.050781   115.3125   105.2500
 2053.5900   2052.828   76.00000   116.1250   8.812500   53.12891   11.21725   10.37582   23.29688   2.488281   2.617188   20.50781   .0136719   3458.000   1417.000   15.11719   1.285156   2.294922   106.1250   95.50000
 2053.7424   2052.980   77.18750   113.1875   8.804688   53.11328   8.975830   8.166626   13.15885   2.509766   2.605469   18.65234   .0278320   3442.000   1537.000   15.47656   .2465820   1.806641   101.3750   99.31250
 2053.8948   2053.132   77.75000   109.0625   8.742188   53.71875   7.444370   6.738815   6.932289   2.525391   2.599609   17.72461   .0468750   3330.000   1435.000   16.40625   .6518555   1.611328   98.43750   93.06250
 2054.0472   2053.285   78.18750   105.2500   8.757813   53.32227   6.637615   6.021656   7.955727   2.511719   2.593750   18.45703   .0537109   3214.000   1426.000   16.53125   1.283203   1.708984   102.4375   91.81250
 2054.1996   2053.437   77.18750   107.1250   8.742188   54.04688   6.859894   6.303200   5.610676   2.429688   2.597656   18.94531   .0537109   3352.000   1401.000   17.35938   1.202148   1.611328   109.3750   99.43750
 2054.3520   2053.590   77.18750   108.9375   8.734375   54.42969   6.989674   6.383648   7.453125   2.599609   2.583984   20.01953   .0449219   3440.000   1426.000   17.34375   1.753906   1.757813   108.5000   94.00000
 2054.5044   2053.742   78.18750   110.1250   8.734375   56.22656   6.844028   6.313480   8.601563   2.519531   2.564453   19.33594   .0341797   3604.000   1452.000   15.78125   .9404297   1.708984   102.1250   94.37500
 2054.6568   2053.895   79.75000   106.9375   8.671875   56.49219   6.592209   6.112385   13.07552   2.484375   2.541016   18.31055   .0273438   3856.000   1712.000   14.82031  -.0439453   1.611328   90.75000   91.12500
 2054.8092   2054.047   80.00000   103.8125   8.625000   56.26172   6.303913   5.735744   5.811195   2.236328   2.539063   16.74805   .0346680   3688.000   1708.000   14.89063  -.0590820   1.513672   86.31250   86.81250
 2054.9616   2054.199   79.37500   100.0625   8.617188   56.40625   6.005188   5.430336   4.592445   2.187500   2.544922   16.06445   .0400391   3720.000   1733.000   15.17188   .3427734   1.660156   91.75000   88.87500
 2055.1140   2054.352   78.00000   98.43750   8.640625   56.07422   6.045773   5.483341   5.812500   1.987305   2.550781   16.79688   .0400391   3728.000   1760.000   16.28125   .9033203   1.611328   94.18750   86.75000
 2055.2664   2054.504   78.00000   94.87500   8.601563   56.42578   6.351208   5.704891   7.489582   1.962891   2.533203   16.55273   .0385742   3986.000   1721.000   14.89063   .3173828   1.757813   90.50000   87.87500
 2055.4188   2054.656   80.00000   88.31250   8.617188   56.64844   5.326691   4.787697   6.404945   1.890625   2.492188   16.21094   .0234375   3566.000   1697.000   14.47656  -1.288086   2.050781   84.25000   94.87500
 2055.5712   2054.809   80.75000   80.25000   8.578125   57.15234   4.264645   3.816414   6.300781   2.083984   2.478516   15.42969   .0175781   3294.000   1616.000   15.82031  -.7597656   2.001953   83.87500   90.12500
 2055.7236   2054.961   81.75000   80.93750   8.601563   56.40625   3.765205   3.405066   3.051432   2.232422   2.503906   17.82227   .0126953   3068.000   1426.000   19.18750  -.7084961   1.464844   97.87500   103.6875
 2055.8760   2055.114   82.00000   89.37500   8.640625   56.16016   3.980425   3.701803   3.667316   2.859375   2.562500   20.94727   .0073242   3404.000   1309.000   22.14063   .7392578   1.416016   106.8125   100.6875
 2056.0284   2055.266   81.18750   105.4375   8.710938   56.20313   4.130524   3.901524   4.438148   3.242188   2.673828   21.43555   .0209961   3130.000   1159.000   21.48438  -.1103516   1.513672   111.9375   112.8750
 2056.1808   2055.418   78.37500   118.0000   8.664063   56.84375   4.511654   4.384026   6.500000   2.853516   2.738281   22.90039   .0195313   3024.000   1327.000   20.95313  -.5986328   1.660156   106.5625   111.5000
 2056.3332   2055.571   81.37500   119.9375   8.726563   57.10547   4.706070   4.710125   5.601563   2.414063   2.724609   22.31445   .0390625   3424.000   1187.000   20.62500  -2.896484   2.001953   97.81250   121.7500
 2056.4856   2055.723   83.18750   110.6875   8.679688   56.58594   3.979223   4.020458   5.714844   1.963867   2.574219   23.43750   .0136719   3610.000   1390.000   13.59375   .0971680   1.513672   87.68750   86.87500
 2056.6380   2055.875   87.18750   97.43750   8.625000   57.10156   2.930998   3.060253   6.561195   1.858398   2.462891   20.89844   .0180664   3662.000   1463.000   7.292969   2.830078   .8300781   71.87500   48.53125
 2056.7904   2056.028   90.56250   79.75000   8.562500   57.24219   2.421844   2.513607   6.014320   1.829102   2.386719   19.18945   .0136719   3682.000   1580.000   2.882813   3.984375   .5859375   58.46875   25.57813
 2056.9428   2056.181   91.75000   65.00000   8.523438   57.88672   2.143124   2.175093   2.932291   1.984375   2.386719   17.96875   .0288086   3388.000   1536.000   1.990234   3.525391   .4882813   51.31250   22.21875
 2057.0952   2056.333   98.75000   54.25000   8.546875   58.11719   1.794591   1.870743   1.869791   1.833984   2.412109   19.04297   .0322266   3322.000   1471.000   1.763672   4.019531   .8300781   52.50000   19.31250
 2057.2476   2056.485   100.0000   56.40625   8.578125   58.22656   1.586026   1.717378   1.680013   1.754883   2.414063   20.26367   .0336914   3502.000   1363.000   1.893555   4.265625   .8789063   54.65625   19.40625
 2057.4000   2056.638   100.3750   55.12500   8.578125   58.71094   1.464752   1.649815   2.240234   1.621094   2.365234   21.04492   .0166016   3512.000   1425.000   1.367188   3.615234   .8300781   52.00000   22.17188
 2057.5524   2056.790   91.56250   53.28125   8.570313   59.06250   1.428150   1.569130   1.915364   1.676758   2.314453   20.70313   .0146484   3542.000   1464.000   5.511719   1.099609   .7324219   44.12500   35.03125
 2057.7048   2056.942   92.37500   43.37500   8.492188   60.32031   1.282894   1.430994   1.324219   1.648438   2.304688   20.36133   .0136719   3584.000   1435.000   4.304688   .6557617   .8300781   39.53125   34.09375
 2057.8572   2057.095   91.37500   40.84375   8.507813   60.07813   1.243269   1.395118   1.281900   1.642578   2.316406   19.14063   .0141602   3760.000   1572.000   4.222656   .6381836   .7812500   35.43750   30.18750
 2058.0096   2057.247   90.56250   38.34375   8.531250   60.09375   1.276624   1.419606   1.369466   1.631836   2.333984   18.06641   .0205078   3788.000   1749.000   4.117188   .6064453   .7324219   35.03125   30.01563
 2058.1620   2057.399   89.00000   41.25000   8.562500   59.82813   1.324842   1.423947   1.518555   1.859375   2.351563   16.89453   .0283203   3834.000   1682.000   3.591797   .7109375   .9765625   36.56250   30.70313
