~Version Information
VERS.                     2.0: CWLS log ASCII Standard Version 2.00
WRAP.                      NO: One line per depth step
~Well Information Block
#MNEM.UNIT                 Value                       Information
#------------              -----                       -----------
STRT.M                     39.6240                    :START
STOP.M                   2661.9708                    :STOP
STEP.M                       .1524                    :STEP
NULL.                     -999.25                     :NULL VALUE
WELL.         CHERVIL 1                               :Well Name
FLD .         CHERVIL                                 :Field
PROV.                                                 :Province
LOC .                                                 :Field Location
PD  .         MSL                                     :Permanent Datum
UWI .                                                 :Unique Well ID
ELZ .M               .00                              :Elevation Log Zero
OS  .                                                 :Services
SRVC.                                                 :Service company
DATE.                                                 :Date
~Curve Information
#MNEM   .UNIT             API CODE Curve Description
#------------             -------- -----------------
DEPT    .M                        :   1  Depth
DEP     .M                        :   2  Measured Depth
FDTU    .US/F                     :   3  Delta T
SGRC    .GAPI                     :   4  Gamma-Ray Log (Renamed from GR)
ACAL    .CM                       :   5  Caliper Log
SP      .MV                       :   6  Spontaneous Potential Log
LLS     .OHMM                     :   7  Shallow Laterolog
SEDP    .OHMM                     :   8  Laterolog Deep Resistivity
MSFL    .OHMM                     :   9  Micro Spherically Focused Log
PEF     .                         :  10  Photoelectric Factor
SBDC    .G/C3                     :  11  Compensated Formation Density Log
FSTP    .PU                       :  12  Neutron Log Porosity
DRHO    .G/C3                     :  13  Density Log Correction
NCNL    .CPS                      :  14
FCNL    .CPS                      :  15
THOR    .PPM                      :  16  Thorium
URAN    .PPM                      :  17  Uranium
POTA    .PU                       :  18  Potassium Concentration
SGR     .GAPI                     :  19  Spectral Gamma-Ray
CGR     .GAPI                     :  20  Computed Gamma-Ray (Thorium + Potassium)
~Parameter Information
#MNEM.UNIT       Value           Description
#------------    -----           -----------
BLI .M           2661.06        :Bottom log interval
TLI .M             39.47        :Top log interval
~Other Information
~A
# ...
  862.8888   862.5837   119.3750   63.43750   17.50000   73.67969   1.108343   1.086438   1.975911    -999.25    -999.25    -999.25    -999.25    -999.25    -999.25    -999.25    -999.25    -999.25    -999.25    -999.25
  863.0412   862.7361   118.5781   62.18750   17.48438   73.67188   1.146530   1.111059   1.938151    -999.25    -999.25    -999.25    -999.25    -999.25    -999.25    -999.25    -999.25    -999.25    -999.25    -999.25
  863.1936   862.8885   119.0781   63.03125   17.46875   73.62891   1.133653   1.114289   2.055338    -999.25    -999.25    -999.25    -999.25    -999.25    -999.25    -999.25    -999.25    -999.25    -999.25    -999.25
  863.3460   863.0409   121.7813   59.00000   17.51563   73.61328   1.091648   1.074391   2.058594    -999.25    -999.25    -999.25    -999.25    -999.25    -999.25    -999.25    -999.25    -999.25    -999.25    -999.25
  863.4984   863.1934   125.3750   56.00000   17.54688   73.63086   1.006959   1.005103   2.031901    -999.25    -999.25    -999.25    -999.25    -999.25    -999.25    -999.25    -999.25    -999.25    -999.25    -999.25
  863.6508   863.3457   128.3125   54.34375   17.56250   73.61719   .9269644   .9105229   1.795573    -999.25    -999.25    -999.25    -999.25    -999.25    -999.25    -999.25    -999.25    -999.25    -999.25    -999.25
  863.8032   863.4980   129.6563   57.12500   17.54688   73.59961   .9120426   .8693027   1.541341    -999.25    -999.25    -999.25    -999.25    -999.25    -999.25    -999.25    -999.25    -999.25    -999.25    -999.25
  863.9556   863.6505   128.3906   63.65625   17.46875   73.58203   .8754003   .8740572   1.461914    -999.25    -999.25    -999.25    -999.25    -999.25    -999.25    -999.25    -999.25    -999.25    -999.25    -999.25
  864.1080   863.8029   126.2500   61.81250   17.48438   73.63086   .9184105   .9042860   1.644531    -999.25    -999.25    -999.25    -999.25    -999.25    -999.25    -999.25    -999.25    -999.25    -999.25    -999.25
  864.2604   863.9553   125.4219   65.37500   17.46875   73.65234   .9316379   .9280938   1.734375    -999.25    -999.25    -999.25    -999.25    -999.25    -999.25    -999.25    -999.25    -999.25    -999.25    -999.25
  864.4128   864.1077   125.4219   57.90625   17.48438   73.64063   .9735205   .9501101   1.821940    -999.25    -999.25    -999.25    -999.25    -999.25    -999.25    -999.25    -999.25    -999.25    -999.25    -999.25
  864.5652   864.2601   125.5156   59.68750   17.46875   73.62695   .9612815   .9339844   1.731771    -999.25    -999.25    -999.25    -999.25    -999.25    -999.25    -999.25    -999.25    -999.25    -999.25    -999.25
  864.7176   864.4125   125.2656   56.28125   17.53125   73.61133   .9655117   .9406867   1.682292    -999.25    -999.25    -999.25    -999.25    -999.25    -999.25    -999.25    -999.25    -999.25    -999.25    -999.25
  864.8700   864.5649   124.7656   60.21875   17.54688   73.66602   .9380500   .9439245   1.735352    -999.25    -999.25    -999.25    -999.25    -999.25    -999.25    -999.25    -999.25    -999.25    -999.25    -999.25
  865.0224   864.7173   125.1563   60.21875   17.51563   73.65625   .9783285   .9310616   1.789063    -999.25    -999.25    -999.25    -999.25    -999.25    -999.25    -999.25    -999.25    -999.25    -999.25    -999.25
  865.1748   864.8698   126.8125   60.40625   17.54688   73.68164   .9537218   .9237449   1.723307    -999.25    -999.25    -999.25    -999.25    -999.25    -999.25    -999.25    -999.25    -999.25    -999.25    -999.25
  865.3272   865.0221   165.8125   81.12500   14.34375   73.00000   .2730791   .6000000   .8072916    -999.25   1.793945   53.36914  -.0195313   1154.000   252.3750   9.890625  -1.966797   3.759766   85.06250   100.8750
  865.4796   865.1746   160.3750   79.18750   14.41406   73.50000   .6401868   .6000000   .8597004   2.820313   1.791016   54.00391  -.0249023   1190.000   222.3750   9.007813  -1.344727   3.662109   84.81250   95.56250
  865.6320   865.3269   140.7813   83.37500   14.20313   74.00000   .7912791   .6000000   .8330078   2.894531   1.801758   51.02539  -.0083008   1129.000   228.1250   9.195313  -.4218750   3.125000   82.37500   85.81250
  865.7844   865.4792   132.4688   87.06250   14.01563   75.10938   .8510840   .6000000   .8380533   2.847656   1.811523   49.26758   .0034180   1169.000   249.2500   9.156250  -.3974609   3.125000   80.68750   83.87500
  865.9368   865.6317   134.0938   88.06250   13.92188   75.39063   .8586395   .6000000   .8567708   2.810547   1.813477   48.77930   .0087891   1166.000   246.3750   9.546875  -.6723633   3.271484   78.37500   83.81250
  866.0892   865.7841   136.5313   82.56250   13.95313   76.59375   .9826956   .6000000   .6842448   2.839844   1.818359   48.58398   .0126953   1169.000   255.1250   10.07031  -.4404297   3.125000   84.12500   87.68750
  866.2416   865.9365   140.7500   80.93750   13.96094   75.85938   1.021511   .6000000   .7556965   2.849609   1.819336   47.31445   .0126953   1174.000   255.5000   7.964844   .0498047   3.759766   86.81250   86.37500
  866.3940   866.0889   147.5000   84.25000   13.89063   75.12500   1.083285   .6000000   .9404297   2.638672   1.813477   44.04297   .0249023   1183.000   252.2500   8.507813  -.4340820   3.808594   93.93750   97.43750
  866.5464   866.2413   156.1563   88.06250   14.12500   74.10938   1.067060   .6000000   .9697266   2.335938   1.858398   39.25781   .0854492   1117.000   258.2500   9.375000  -.9023438   3.906250   92.25000   99.50000
  866.6988   866.3937   164.5000   86.68750   15.59375   72.09375   1.011131   .6000000   .6342773   2.146484   1.884766   39.06250   .1337891   1082.000   273.5000   9.898438  -.8535156   3.710938   95.31250   102.1875
  866.8512   866.5461   169.7500   86.81250   17.56250   72.31250   .9814644   .6000000   .3950195   2.113281   1.903320   42.23633   .1796875   1063.000   276.2500   9.906250  -.7778320   3.662109   94.62500   100.8750
  867.0036   866.6985   168.5938   85.00000   15.73438   71.29688   .9742094   .6000000   .2473958   2.162109   1.833008   44.38477   .1274414   1093.000   246.1250   9.984375  -.9726563   3.710938   93.87500   101.6875
  867.1560   866.8510   161.4063   86.81250   14.58594   71.09375   .9665169   .6000000   .3214518   2.101563   1.821289   46.48438   .1113281   1082.000   243.2500   8.203125   .2084961   3.564453   89.93750   88.31250
  867.3084   867.0033   155.2188   82.06250   14.58594   70.35938   1.025342   .6000000   .4995117   2.070313   1.831055   46.48438   .1044922   1057.000   252.3750   8.640625  -.2783203   3.710938   88.18750   90.43750
  867.4608   867.1556   154.6563   82.50000   14.64844   69.59375   1.039420   .6000000   .5232747   2.064453   1.797852   49.85352   .1123047   1111.000   228.3750   8.296875  -.2446289   3.808594   88.43750   90.43750
  867.6132   867.3081   157.8125   79.12500   14.40625   69.57813   1.064645   .6000000   .4186198   2.234375   1.773438   47.65625   .1005859   1057.000   237.5000   8.492188  -.3632813   3.857422   89.43750   92.37500
  867.7656   867.4604   162.2813   84.37500   14.21094   69.57813   1.063653   .6000000   .3857422   2.150391   1.776367   46.97266   .0834961   1105.000   228.1250   8.093750  -.2495117   3.906250   91.68750   93.68750
  867.9180   867.6129   165.5938   82.43750   14.07031   69.59375   1.058225   .6000000   .2817383   2.054688   1.793945   43.01758   .0786133   1087.000   246.3750   8.875000  -.2270508   3.759766   89.87500   91.75000
  868.0704   867.7653   166.8438   81.37500   14.29688   70.07813   1.069706   .5992781   .3343099   2.037109   1.674805   43.45703   .0527344   1033.000   240.3750   9.414063  -.8212891   3.906250   90.37500   97.00000
  868.2228   867.9177   170.2813   77.37500   14.44531   70.59375   1.043002   .6487943   .3287760   2.261719   1.616211   42.28516   .0561523   1088.000   267.5000   9.906250  -1.124023   4.052734   88.56250   97.56250
  868.3752   868.0701   175.7188   80.93750   14.10938   72.65625   1.085711   .7407460   .2679036   2.187500   1.603516   43.65234   .0654297   1111.000   246.3750   10.01563  -1.248047   4.101563   91.81250   101.8125
