~Version Information
VERS.                     2.0: CWLS log ASCII Standard Version 2.00
WRAP.                      NO: One line per depth step
~Well Information Block
#MNEM.UNIT                 Value                       Information
#------------              -----                       -----------
STRT.M                     39.6240                    :START
STOP.M                   2661.9708                    :STOP
STEP.M                       .1524                    :STEP
NULL.                     -999.25                     :NULL VALUE
WELL.         CHERVIL 1                               :Well Name
FLD .         CHERVIL                                 :Field
PROV.                                                 :Province
LOC .                                                 :Field Location
PD  .         MSL                                     :Permanent Datum
UWI .                                                 :Unique Well ID
ELZ .M               .00                              :Elevation Log Zero
OS  .                                                 :Services
SRVC.                                                 :Service company
DATE.                                                 :Date
~Curve Information
#MNEM   .UNIT             API CODE Curve Description
#------------             -------- -----------------
DEPT    .M                        :   1  Depth
DEP     .M                        :   2  Measured Depth
FDTU    .US/F                     :   3  Delta T
SGRC    .GAPI                     :   4  Gamma-Ray Log (Renamed from GR)
ACAL    .CM                       :   5  Caliper Log
SP      .MV                       :   6  Spontaneous Potential Log
LLS     .OHMM                     :   7  Shallow Laterolog
SEDP    .OHMM                     :   8  Laterolog Deep Resistivity
MSFL    .OHMM                     :   9  Micro Spherically Focused Log
PEF     .                         :  10  Photoelectric Factor
SBDC    .G/C3                     :  11  Compensated Formation Density Log
FSTP    .PU                       :  12  Neutron Log Porosity
DRHO    .G/C3                     :  13  Density Log Correction
NCNL    .CPS                      :  14
FCNL    .CPS                      :  15
THOR    .PPM                      :  16  Thorium
URAN    .PPM                      :  17  Uranium
POTA    .PU                       :  18  Potassium Concentration
SGR     .GAPI                     :  19  Spectral Gamma-Ray
CGR     .GAPI                     :  20  Computed Gamma-Ray (Thorium + Potassium)
~Parameter Information
#MNEM.UNIT       Value           Description
#------------    -----           -----------
BLI .M           2661.06        :Bottom log interval
TLI .M             39.47        :Top log interval
~Other Information
~A
# ...
 1099.7184   1099.261   90.98438   54.53125   12.11719   87.06250   .6837511   .6681490   .7962236   2.185547   2.230469   23.82813  -.0014648   2504.000   829.0000   5.753906  -1.667969   2.832031   51.21875   64.62500
 1099.8708   1099.413   89.76563   53.62500   12.08594   86.56250   .6990280   .6631341   .7706704   2.388672   2.240234   22.41211  -.0004883   2384.000   871.5000   5.570313  -1.309570   2.783203   51.71875   62.25000
 1100.0232   1099.566   88.76563   52.96875   12.08594   86.78125   .6875691   .6602955   .6879883   2.585938   2.259766   21.14258   .0053711   2236.000   840.5000   6.796875  -2.066406   2.929688   55.03125   71.62500
 1100.1756   1099.718   88.07813   55.68750   12.10156   86.31250   .7023597   .6410365   .7254229   2.402344   2.271484   22.85156   .0117188   2222.000   806.5000   7.011719  -1.894531   2.880859   57.93750   73.12500
 1100.3280   1099.870   88.12500   56.03125   12.17969   85.81250   .6770182   .6409149   .7407227   2.142578   2.269531   24.41406   .0190430   2248.000   726.5000   6.785156  -1.819336   2.832031   58.65625   73.25000
 1100.4804   1100.023   89.32813   60.50000   12.17969   85.59375   .7083201   .6493535   .8024087   1.985352   2.244141   24.60938   .0141602   2366.000   791.0000   6.027344  -1.015625   2.636719   57.90625   66.06250
 1100.6328   1100.175   90.68750   59.06250   12.17969   85.06250   .6912618   .6571331   .9352212   2.003906   2.236328   23.09570   .0131836   2266.000   813.0000   6.593750  -1.136719   2.587891   56.90625   66.00000
 1100.7852   1100.328   91.43750   56.18750   12.17969   85.81250   .6773858   .6424460   .8821611   2.107422   2.244141   23.04688   .0122070   2308.000   827.5000   6.093750  -.5048828   2.392578   57.31250   61.37500
 1100.9376   1100.480   91.68750   54.93750   12.17969   84.84375   .6783061   .6068482   .7675781   2.078125   2.251953   24.41406   .0068359   2418.000   812.5000   6.500000  -.6171875   2.392578   57.65625   62.62500
 1101.0900   1100.633   91.23438   56.46875   12.16406   84.59375   .6379123   .5797787   .7724609   2.171875   2.271484   25.00000   .0083008   2484.000   808.5000   6.722656  -.4995117   2.294922   59.31250   63.31250
 1101.2424   1100.785   90.68750   61.25000   12.09375   84.59375   .5813942   .5429926   .7760415   2.242188   2.285156   24.56055   .0112305   2464.000   845.0000   7.410156  -1.582031   2.685547   58.96875   71.62500
 1101.3948   1100.937   90.84375   64.12500   12.15625   84.34375   .5711989   .5383959   .7566729   2.345703   2.292969   23.04688   .0200195   2448.000   851.0000   6.363281  -1.150391   2.685547   60.50000   69.75000
 1101.5472   1101.090   91.34375   61.34375   12.17969   84.84375   .5891252   .5305457   .7351885   2.210938   2.277344   22.55859   .0288086   2222.000   803.5000   7.109375  -1.802734   2.929688   60.84375   75.31250
 1101.6996   1101.242   91.89063   59.84375   12.08594   83.59375   .6074271   .5637479   .6884766   2.152344   2.244141   23.58398   .0278320   2134.000   759.0000   6.230469  -1.309570   2.832031   64.12500   74.68750
 1101.8520   1101.395   92.37500   53.81250   12.08594   84.84375   .6254916   .5809069   .8779297   2.097656   2.210938   24.80469   .0190430   2230.000   724.0000   6.691406  -1.218750   2.636719   60.03125   69.81250
 1102.0044   1101.547   92.76563   53.40625   12.08594   85.31250   .6270494   .6131835   .8779297   2.189453   2.197266   25.68359   .0092773   2196.000   727.0000   5.972656  -1.496094   2.734375   56.12500   68.12500
 1102.1568   1101.699   92.82813   53.00000   12.08594   85.56250   .6100821   .5980039   .8738604   2.185547   2.191406   24.80469   .0024414   2304.000   769.5000   5.308594  -.9257813   2.685547   51.53125   58.96875
 1102.3092   1101.852   92.68750   56.78125   12.08594   86.31250   .6051064   .6082039   .7550454   2.214844   2.199219   24.07227  -.0009766   2320.000   801.5000   5.710938  -.7802734   2.636719   54.40625   60.65625
 1102.4616   1102.004   92.53125   59.53125   12.12500   85.53125   .5870814   .5623446   .6863604   2.322266   2.208984   23.73047  -.0048828   2336.000   814.0000   5.480469  -.7377930   2.783203   55.78125   61.71875
 1102.6140   1102.156   91.57813   58.93750   12.08594   86.31250   .5907397   .5344310   .7029619   2.357422   2.236328   23.92578  -.0087891   2384.000   814.0000   5.277344  -.2163086   2.587891   58.25000   60.00000
 1102.7664   1102.309   90.18750   60.28125   12.08594   86.81250   .5862184   .5600915   .6453447   2.312500   2.248047   24.26758  -.0078125   2454.000   835.5000   4.855469   .1733398   2.539063   58.31250   56.93750
 1102.9188   1102.461   89.23438   59.81250   12.08594   86.59375   .6241302   .5903745   .6526690   2.234375   2.248047   23.04688  -.0009766   2316.000   787.5000   5.160156   .4443359   2.392578   59.50000   55.90625
 1103.0712   1102.614   88.92188   60.31250   12.08594   86.56250   .6442981   .6074657   .8816729   2.220703   2.234375   21.97266   .0034180   2216.000   829.0000   5.664063  -.0009766   2.539063   62.75000   62.75000
 1103.2236   1102.766   89.21875   70.31250   12.08594   86.12500   .6946321   .6673470   .8842773   2.242188   2.240234   21.28906   .0112305   2336.000   861.0000   6.628906  -.2543945   2.539063   67.00000   69.06250
 1103.3760   1102.918   89.42188   75.62500   12.08594   86.84375   .7018037   .6832619   .8699541   2.142578   2.238281   22.16797   .0073242   2304.000   823.5000   6.832031  -.2089844   2.392578   69.87500   71.56250
 1103.5284   1103.071   89.32813   78.00000   12.08594   86.62500   .7025247   .6724830   .9026690   2.056641   2.246094   22.80273   .0097656   2362.000   827.5000   3.816406   1.320313   2.246094   66.37500   55.75000
 1103.6808   1103.223   89.12500   66.31250   12.08594   85.87500   .7076530   .6687412   .8649087   2.078125   2.246094   23.29102   .0107422   2400.000   844.0000   4.074219   1.040039   2.246094   63.75000   55.37500
 1103.8332   1103.376   88.71875   56.37500   12.08594   85.40625   .6876235   .6917491   .8395181   2.220703   2.257813   23.43750   .0097656   2556.000   880.5000   4.773438   .3271484   2.441406   61.12500   58.50000
 1103.9856   1103.528   88.87500   58.40625   12.08594   85.40625   .6983109   .6566987   .8592119   2.443359   2.265625   22.60742   .0048828   2522.000   875.5000   4.628906   .6020508   2.294922   60.46875   55.62500
 1104.1380   1103.680   89.98438   57.68750   12.08594   86.40625   .6761661   .6390653   .7666016   2.486328   2.267578   21.48438   .0083008   2262.000   844.5000   4.644531   .6889648   2.246094   58.09375   52.53125
 1104.2904   1103.833   90.93750   62.00000   12.08594   84.90625   .6297369   .5839982   .7941079   2.419922   2.277344   21.28906   .0283203   2072.000   778.0000   5.054688   .3837891   2.343750   57.68750   54.59375
 1104.4428   1103.985   91.18750   58.87500   12.08594   84.65625   .5825434   .5477371   .7623696   2.318359   2.271484   22.94922   .0429688   2122.000   745.5000   5.253906   .4375000   2.343750   59.15625   55.65625
 1104.5952   1104.138   90.89063   61.96875   12.08594   84.65625   .5555243   .5173507   .6593423   2.335938   2.267578   24.56055   .0419922   2176.000   720.0000   6.703125  -.5468750   2.539063   63.50000   67.87500
 1104.7476   1104.290   90.29688   65.00000   12.08594   84.40625   .5448093   .5042019   .6943359   2.421875   2.246094   26.17188   .0175781   2242.000   750.5000   8.492188  -1.942383   2.880859   66.00000   81.56250
 1104.9000   1104.442   90.39063   64.93750   12.08594   84.62500   .5550008   .5195088   .7273760   2.707031   2.267578   26.90430   .0136719   2278.000   714.0000   7.746094  -2.035156   2.978516   66.18750   82.56250
 1105.0524   1104.595   91.37500   64.37500   12.08594   83.90625   .5414581   .5128059   .7356768   2.453125   2.273438   26.51367   .0063477   2250.000   710.0000   8.304688  -2.812500   3.173828   65.18750   87.81250
 1105.2048   1104.747   92.21875   62.03125   12.08594   84.12500   .6095552   .5605831   .7023110   2.361328   2.267578   26.56250   .0053711   2210.000   761.0000   7.316406  -1.850586   2.929688   63.71875   78.56250
