~Version Information
VERS.                     2.0: CWLS log ASCII Standard Version 2.00
WRAP.                      NO: One line per depth step
~Well Information Block
#MNEM.UNIT                 Value                       Information
#------------              -----                       -----------
STRT.M                     39.6240                    :START
STOP.M                   2661.9708                    :STOP
STEP.M                       .1524                    :STEP
NULL.                     -999.25                     :NULL VALUE
WELL.         CHERVIL 1                               :Well Name
FLD .         CHERVIL                                 :Field
PROV.                                                 :Province
LOC .                                                 :Field Location
PD  .         MSL                                     :Permanent Datum
UWI .                                                 :Unique Well ID
ELZ .M               .00                              :Elevation Log Zero
OS  .                                                 :Services
SRVC.                                                 :Service company
DATE.                                                 :Date
~Curve Information
#MNEM   .UNIT             API CODE Curve Description
#------------             -------- -----------------
DEPT    .M                        :   1  Depth
DEP     .M                        :   2  Measured Depth
FDTU    .US/F                     :   3  Delta T
SGRC    .GAPI                     :   4  Gamma-Ray Log (Renamed from GR)
ACAL    .CM                       :   5  Caliper Log
SP      .MV                       :   6  Spontaneous Potential Log
LLS     .OHMM                     :   7  Shallow Laterolog
SEDP    .OHMM                     :   8  Laterolog Deep Resistivity
MSFL    .OHMM                     :   9  Micro Spherically Focused Log
PEF     .                         :  10  Photoelectric Factor
SBDC    .G/C3                     :  11  Compensated Formation Density Log
FSTP    .PU                       :  12  Neutron Log Porosity
DRHO    .G/C3                     :  13  Density Log Correction
NCNL    .CPS                      :  14
FCNL    .CPS                      :  15
THOR    .PPM                      :  16  Thorium
URAN    .PPM                      :  17  Uranium
POTA    .PU                       :  18  Potassium Concentration
SGR     .GAPI                     :  19  Spectral Gamma-Ray
CGR     .GAPI                     :  20  Computed Gamma-Ray (Thorium + Potassium)
~Parameter Information
#MNEM.UNIT       Value           Description
#------------    -----           -----------
BLI .M           2661.06        :Bottom log interval
TLI .M             39.47        :Top log interval
~Other Information
~A
# ...
 1579.0164   1578.406   83.60938   122.4375   14.21875   64.59375   3.953127   3.717682   5.598957   2.671875   2.460938   20.65430   .0043945   2312.000   835.0000   14.79688   .1396484   3.857422   121.4375   120.3125
 1579.1688   1578.559   83.60938   124.5625   14.21875   64.57031   3.846409   3.681377   5.632813   2.810547   2.462891   21.09375   .0048828   2264.000   840.0000   15.46094  -.0273438   3.759766   122.0625   122.3125
 1579.3212   1578.711   83.37500   121.5000   14.21875   64.54688   3.816732   3.703802   5.695313   2.794922   2.466797   20.55664   .0000000   2284.000   800.0000   15.96094  -.1816406   3.759766   120.6250   122.1250
 1579.4736   1578.864   83.03125   123.5000   14.28906   64.55469   3.841738   3.728056   5.858070   2.636719   2.474609   20.50781   .0029297   2216.000   836.0000   16.78125  -.4829102   3.710938   123.6250   127.5000
 1579.6260   1579.016   82.87500   120.4375   14.32031   64.07031   3.870821   3.744246   5.860676   2.660156   2.484375   19.38477   .0083008   2186.000   811.0000   17.01563  -.6684570   3.759766   121.5625   126.9375
 1579.7784   1579.168   82.78125   119.5000   14.40625   63.82813   3.826296   3.724779   6.265625   2.746094   2.496094   19.77539   .0112305   2166.000   826.0000   18.43750  -1.460938   3.759766   121.3125   133.0000
 1579.9308   1579.321   82.62500   120.6875   14.44531   64.05469   3.802284   3.720482   6.027344   2.839844   2.511719   19.33594   .0107422   2192.000   801.5000   18.53125  -1.453125   3.759766   121.1250   132.7500
 1580.0832   1579.473   83.01563   116.2500   14.49219   63.57031   3.804018   3.713881   5.787758   2.722656   2.500000   19.92188   .0073242   2176.000   831.5000   18.62500  -.8745117   3.466797   120.3750   127.3750
 1580.2356   1579.626   83.57813   114.1875   14.58594   64.08594   3.746614   3.679844   4.924477   2.597656   2.482422   20.26367   .0063477   2116.000   771.5000   19.37500  -1.780273   3.710938   120.1250   134.3750
 1580.3880   1579.778   83.68750   114.6875   14.62500   65.06250   3.663671   3.582714   5.391926   2.638672   2.472656   21.63086   .0112305   2172.000   772.0000   18.42188  -1.103516   3.662109   115.8125   124.6875
 1580.5404   1579.930   83.89063   123.0000   14.66406   64.82031   3.653502   3.631929   5.238281   2.681641   2.472656   21.72852   .0092773   2142.000   737.5000   18.10938  -.9165039   3.710938   120.8125   128.1250
 1580.6928   1580.083   83.84375   122.4375   14.74219   65.83594   3.598469   3.546505   5.100258   2.837891   2.476563   22.21680   .0117188   2076.000   751.5000   16.79688  -.3149414   3.857422   124.3750   126.9375
 1580.8452   1580.235   83.28125   124.2500   14.75781   66.34375   3.540903   3.464233   5.377602   2.876953   2.474609   21.92383   .0048828   2122.000   727.0000   17.00000  -.3339844   3.759766   125.6250   128.2500
 1580.9976   1580.388   82.85938   118.8750   14.77344   66.10938   3.496420   3.446743   5.630207   2.851563   2.484375   22.46094   .0083008   2088.000   732.5000   17.31250  -.1235352   3.515625   122.9375   123.9375
 1581.1500   1580.540   82.81250   124.4375   14.85156   65.85156   3.463600   3.404350   5.855469   2.685547   2.472656   21.58203   .0034180   2072.000   722.0000   17.85938  -.3466797   3.564453   119.7500   122.5000
 1581.3024   1580.692   83.07813   121.5000   14.85156   67.07813   3.437288   3.356077   5.897133   2.541016   2.458984   21.24023   .0048828   2042.000   744.5000   18.57813  -.3608398   3.417969   122.5000   125.3750
 1581.4548   1580.845   83.46875   122.1250   14.93750   66.81250   3.384066   3.302576   5.946613   2.482422   2.437500   20.80078   .0000000   2022.000   726.5000   18.50000  -.4833984   3.515625   122.7500   126.6250
 1581.6072   1580.997   83.85938   119.2500   14.95313   66.07813   3.350197   3.225130   5.445313   2.542969   2.427734   21.04492   .0014648   2008.000   720.0000   18.31250  -.1958008   3.417969   123.3125   124.9375
 1581.7596   1581.150   84.51563   119.0625   15.03125   66.32813   3.207087   3.096367   5.160156   2.671875   2.414063   21.04492   .0000000   1959.000   700.5000   17.84375  -.2104492   3.564453   121.4375   123.1250
 1581.9120   1581.302   85.56250   125.6250   15.03125   65.82031   3.021797   2.928070   4.722656   2.660156   2.402344   21.58203  -.0009766   1992.000   714.0000   18.59375  -.6870117   3.662109   125.3750   130.8750
 1582.0644   1581.455   86.56250   131.2500   15.09375   65.79688   2.784407   2.686504   4.399086   2.582031   2.402344   22.55859  -.0004883   1964.000   677.5000   19.23438  -1.413086   3.955078   128.3750   139.7500
 1582.2168   1581.607   86.87500   128.2500   15.10938   65.51563   2.631847   2.509109   3.403645   2.648438   2.410156   23.58398  -.0019531   1978.000   659.5000   19.85938  -1.774414   3.955078   132.0000   146.2500
 1582.3692   1581.759   86.23438   127.4375   15.10938   65.31250   2.600105   2.496452   3.168619   2.720703   2.433594   23.43750   .0000000   1983.000   659.5000   19.64063  -1.693359   3.955078   130.2500   143.8750
 1582.5216   1581.912   85.28125   125.5625   15.10938   65.32031   2.720976   2.608397   3.219400   2.736328   2.443359   22.41211   .0000000   2008.000   699.5000   19.43750  -1.532227   3.857422   129.2500   141.6250
 1582.6740   1582.064   84.76563   127.6875   15.10938   64.33594   2.784939   2.774025   4.858070   2.615234   2.445313   22.50977   .0000000   1957.000   702.0000   19.62500  -1.302734   3.710938   129.6250   140.1250
 1582.8264   1582.217   84.56250   121.7500   15.10938   65.35156   3.044102   2.983017   4.927082   2.767578   2.451172   22.75391   .0014648   2062.000   682.5000   20.39063  -1.770508   3.759766   127.6250   141.8750
 1582.9788   1582.369   83.76563   130.5000   15.10938   64.57813   3.180038   3.195587   4.458332   2.939453   2.472656   21.97266   .0014648   2210.000   756.0000   19.04688  -1.088867   3.662109   126.5000   135.2500
 1583.1312   1582.521   82.01563   141.6250   15.10938   64.34375   3.426407   3.410711   4.585938   2.970703   2.500000   19.43359   .0000000   2142.000   816.0000   20.40625  -1.682617   3.662109   121.1250   134.6250
 1583.2836   1582.674   80.28125   144.0000   15.10938   64.32031   3.597698   3.616077   5.592445   2.765625   2.515625   17.87109  -.0014648   2098.000   841.5000   19.37500  -1.263672   3.710938   120.8750   131.0000
 1583.4360   1582.826   79.09375   136.3750   15.10938   63.83594   3.917784   3.911770   8.347656   2.689453   2.509766   17.28516  -.0043945   2150.000   827.5000   19.70313  -1.339844   3.759766   121.3750   132.1250
 1583.5884   1582.979   78.78125   129.6250   15.18750   64.53125   4.070110   4.153854   6.673176   2.693359   2.500000   17.96875  -.0083008   2060.000   820.5000   19.64063  -1.248047   3.759766   125.5000   135.5000
 1583.7408   1583.131   79.46875   132.2500   15.20313   64.78906   4.054947   4.159592   6.082031   2.656250   2.490234   18.79883  -.0092773   2102.000   796.5000   20.00000  -1.364258   3.759766   124.5000   135.3750
 1583.8932   1583.283   80.21875   127.0000   15.20313   65.54688   3.957150   4.039288   6.199219   2.679688   2.492188   21.58203  -.0053711   2090.000   755.0000   20.04688  -1.549805   3.808594   125.5000   137.8750
 1584.0456   1583.436   80.60938   126.9375   15.20313   65.55469   3.925785   3.965733   6.044270   2.578125   2.494141   21.72852   .0000000   2158.000   698.0000   19.23438  -1.074219   3.857422   125.0625   133.6250
 1584.1980   1583.588   80.81250   129.2500   15.20313   65.78125   3.869884   3.936159   6.256508   2.578125   2.500000   21.72852   .0048828   2076.000   778.5000   18.93750  -.8911133   3.857422   127.0625   134.2500
 1584.3504   1583.740   80.87500   133.1250   15.25781   66.25000   3.904194   3.952606   6.300781   2.562500   2.507813   19.48242   .0073242   2122.000   767.0000   19.04688  -.9404297   3.857422   126.0625   133.6250
 1584.5028   1583.893   80.76563   133.6250   15.29688   66.03125   3.934675   3.989206   6.361977   2.650391   2.511719   19.38477   .0063477   2114.000   802.5000   19.95313  -1.385742   3.906250   125.8750   137.0000
