~Version Information
VERS.                     2.0: CWLS log ASCII Standard Version 2.00
WRAP.                      NO: One line per depth step
~Well Information Block
#MNEM.UNIT                 Value                       Information
#------------              -----                       -----------
STRT.M                     39.6240                    :START
STOP.M                   2661.9708                    :STOP
STEP.M                       .1524                    :STEP
NULL.                     -999.25                     :NULL VALUE
WELL.         CHERVIL 1                               :Well Name
FLD .         CHERVIL                                 :Field
PROV.                                                 :Province
LOC .                                                 :Field Location
PD  .         MSL                                     :Permanent Datum
UWI .                                                 :Unique Well ID
ELZ .M               .00                              :Elevation Log Zero
OS  .                                                 :Services
SRVC.                                                 :Service company
DATE.                                                 :Date
~Curve Information
#MNEM   .UNIT             API CODE Curve Description
#------------             -------- -----------------
DEPT    .M                        :   1  Depth
DEP     .M                        :   2  Measured Depth
FDTU    .US/F                     :   3  Delta T
SGRC    .GAPI                     :   4  Gamma-Ray Log (Renamed from GR)
ACAL    .CM                       :   5  Caliper Log
SP      .MV                       :   6  Spontaneous Potential Log
LLS     .OHMM                     :   7  Shallow Laterolog
SEDP    .OHMM                     :   8  Laterolog Deep Resistivity
MSFL    .OHMM                     :   9  Micro Spherically Focused Log
PEF     .                         :  10  Photoelectric Factor
SBDC    .G/C3                     :  11  Compensated Formation Density Log
FSTP    .PU                       :  12  Neutron Log Porosity
DRHO    .G/C3                     :  13  Density Log Correction
NCNL    .CPS                      :  14
FCNL    .CPS                      :  15
THOR    .PPM                      :  16  Thorium
URAN    .PPM                      :  17  Uranium
POTA    .PU                       :  18  Potassium Concentration
SGR     .GAPI                     :  19  Spectral Gamma-Ray
CGR     .GAPI                     :  20  Computed Gamma-Ray (Thorium + Potassium)
~Parameter Information
#MNEM.UNIT       Value           Description
#------------    -----           -----------
BLI .M           2661.06        :Bottom log interval
TLI .M             39.47        :Top log interval
~Other Information
~A
# ...
 2171.0904   2170.328   77.75000   29.64063   8.421875   61.60938   1.110599   1.313763   1.158203   1.525391   2.298828   14.25781  -.0014648   4476.000   2158.000   3.511719   .2446289   .5859375   29.46875   27.43750
 2171.2428   2170.480   77.37500   31.09375   8.421875   61.71094   1.114437   1.327998   1.181314   1.506836   2.304688   13.37891   .0000000   4276.000   2194.000   3.742188   .3100586   .5859375   27.82813   25.26563
 2171.3952   2170.633   76.75000   31.06250   8.390625   61.72656   1.094469   1.324456   1.243489   1.491211   2.306641   12.50000   .0029297   4200.000   2312.000   4.101563   .3979492   .6347656   28.65625   25.35938
 2171.5476   2170.785   75.75000   29.20313   8.375000   61.49219   1.087914   1.299867   1.256510   1.522461   2.310547   12.50000   .0053711   4264.000   2250.000   4.105469   .2622070   .5859375   30.59375   28.42188
 2171.7000   2170.938   75.37500   29.28125   8.382813   61.47656   1.080839   1.298244   1.248047   1.570313   2.316406   13.62305   .0083008   4316.000   2220.000   3.773438   .4521484   .7812500   31.09375   27.35938
 2171.8524   2171.090   75.56250   30.78125   8.382813   60.58594   1.081916   1.296850   1.251953   1.603516   2.326172   14.11133   .0073242   4460.000   2174.000   3.738281   .7529297   .6835938   32.50000   26.29688
 2172.0048   2171.242   75.18750   34.09375   8.382813   60.43750   1.119971   1.402006   1.284505   1.546875   2.332031   14.06250   .0073242   4380.000   2190.000   4.070313   .5805664   .6347656   32.90625   28.10938
 2172.1572   2171.395   75.37500   34.06250   8.382813   60.19531   1.120865   1.478206   1.239908   1.530273   2.333984   13.33008   .0087891   4256.000   2204.000   3.830078   .5483398   .7324219   31.70313   27.17188
 2172.3096   2171.547   74.75000   34.46875   8.382813   60.58594   1.120360   1.432209   1.436523   1.563477   2.332031   13.33008   .0068359   4504.000   2376.000   3.664063   .4238281   .6835938   31.29688   27.79688
 2172.4620   2171.700   74.37500   30.17188   8.382813   60.21875   1.166880   1.481646   1.311849   1.584961   2.347656   12.93945   .0126953   4768.000   2374.000   3.785156   .5102539   .6835938   29.76563   25.56250
 2172.6144   2171.852   74.00000   33.96875   8.375000   60.20313   1.195727   1.507332   1.242188   1.650391   2.363281   12.79297   .0117188   4648.000   2510.000   3.378906   .3261719   .7812500   30.98438   28.29688
 2172.7668   2172.004   73.00000   29.65625   8.375000   59.96094   1.251026   1.576981   1.292317   1.614258   2.373047   12.20703   .0131836   4676.000   2522.000   3.490234   .4101563   .9277344   31.90625   28.51563
 2172.9192   2172.157   72.56250   28.64063   8.375000   59.57031   1.271457   1.675524   1.583984   1.654297   2.363281   12.01172   .0073242   4576.000   2418.000   3.931641   .3466797   .8300781   30.79688   27.93750
 2173.0716   2172.309   72.37500   29.62500   8.382813   60.16406   1.331966   1.742338   1.736002   1.574219   2.359375   11.76758   .0068359   4444.000   2448.000   3.691406  -.1074219   .6835938   27.90625   28.78125
 2173.2240   2172.461   73.00000   32.12500   8.375000   60.04688   1.343266   1.750709   1.486002   1.574219   2.343750   11.57227   .0034180   4576.000   2536.000   3.673828  -.1958008   .7324219   27.39063   29.00000
 2173.3764   2172.614   72.75000   32.25000   8.375000   60.64844   1.325990   1.754920   1.384114   1.565430   2.343750   11.86523   .0024414   4684.000   2530.000   4.207031   .2373047   .7812500   30.03125   28.06250
 2173.5288   2172.767   72.56250   25.60938   8.382813   60.90625   1.340179   1.760473   1.412760   1.535156   2.339844   12.20703   .0014648   4608.000   2466.000   3.648438   .2509766   .9277344   30.29688   28.21875
 2173.6812   2172.919   72.00000   27.93750   8.382813   61.37500   1.316351   1.756354   1.402344   1.580078   2.351563   11.71875   .0034180   4428.000   2356.000   2.691406  -.1948242   .9277344   27.65625   29.26563
 2173.8336   2173.071   71.75000   27.29688   8.375000   61.40625   1.298779   1.726433   1.453125   1.607422   2.355469   11.86523   .0058594   4440.000   2546.000   3.021484  -.2426758   .8789063   25.89063   27.89063
 2173.9860   2173.224   71.18750   30.68750   8.367188   61.28906   1.319633   1.787842   1.431314   1.724609   2.355469   11.86523   .0043945   4464.000   2340.000   3.232422   .0683594   .8789063   27.10938   26.54688
 2174.1384   2173.376   71.00000   28.78125   8.359375   61.67188   1.324900   1.779509   1.382813   1.792969   2.359375   11.96289   .0043945   4492.000   2402.000   2.632813  -.0156250   1.074219   28.12500   28.25000
 2174.2908   2173.528   71.18750   28.82813   8.367188   61.67969   1.333899   1.794680   1.347330   1.812500   2.367188   11.71875   .0063477   4376.000   2464.000   2.892578  -.1147461   1.025391   28.04688   28.98438
 2174.4432   2173.681   71.56250   27.78125   8.359375   61.94531   1.332281   1.811091   1.490560   1.709961   2.367188   11.81641   .0058594   4420.000   2394.000   3.109375  -.0917969   .9765625   28.21875   28.96875
 2174.5956   2173.833   71.75000   25.82813   8.375000   61.04688   1.342379   1.788812   1.495442   1.602539   2.355469   11.91406   .0063477   4508.000   2380.000   3.650391   .0366211   .8789063   29.42188   29.12500
 2174.7480   2173.986   72.18750   28.75000   8.359375   61.26563   1.271837   1.759275   1.425781   1.532227   2.345703   12.40234   .0034180   4388.000   2436.000   3.957031   .0180664   .8789063   30.65625   30.50000
 2174.9004   2174.138   72.00000   29.37500   8.375000   61.48438   1.240916   1.677670   1.377604   1.565430   2.343750   12.35352   .0063477   4316.000   2218.000   4.019531   .0761719   .8300781   30.07813   29.43750
 2175.0528   2174.291   72.18750   28.90625   8.375000   61.32031   1.226863   1.628573   1.374023   1.628906   2.339844   12.74414   .0029297   4412.000   2364.000   3.216797   .1430664   .8300781   30.17188   28.98438
 2175.2052   2174.443   72.00000   26.57813   8.351563   61.06250   1.189247   1.628628   1.388672   1.650391   2.326172   12.45117   .0000000   4492.000   2392.000   3.583984   .2211914   .8789063   29.75000   27.92188
 2175.3576   2174.595   71.75000   24.51563   8.351563   60.59375   1.200489   1.643153   1.402994   1.662109   2.326172   12.98828  -.0009766   4364.000   2316.000   3.523438   .3061523   .7324219   29.40625   26.87500
 2175.5100   2174.748   71.56250   27.89063   8.359375   61.34375   1.233535   1.638741   1.360352   1.680664   2.335938   12.98828   .0034180   4304.000   2184.000   2.796875   .0952148   .8300781   27.37500   26.59375
 2175.6624   2174.900   71.56250   30.71875   8.367188   60.96094   1.201786   1.650940   1.375000   1.679688   2.337891   13.52539   .0053711   4340.000   2308.000   2.402344   .1743164   .8300781   26.34375   24.89063
 2175.8148   2175.052   71.37500   31.75000   8.367188   60.96094   1.213208   1.653316   1.381836   1.687500   2.332031   13.28125   .0043945   4304.000   2158.000   2.414063   .1523438   .9277344   26.17188   24.90625
 2175.9672   2175.205   71.56250   28.84375   8.351563   60.58594   1.197873   1.658913   1.339844   1.704102   2.322266   13.33008   .0024414   4324.000   2254.000   2.781250   .2416992   .7324219   25.35938   23.35938
 2176.1196   2175.357   72.00000   24.95313   8.351563   61.11719   1.193337   1.594517   1.312825   1.830078   2.320313   13.03711   .0063477   4268.000   2248.000   2.621094   .0664063   .7324219   25.37500   24.81250
 2176.2720   2175.510   72.37500   27.37500   8.351563   60.99219   1.186075   1.550967   1.276692   1.901367   2.310547   13.18359   .0073242   4296.000   2220.000   2.419922   .2851563   .9277344   26.67188   24.31250
 2176.4244   2175.662   72.56250   27.45313   8.367188   60.61719   1.156927   1.504164   1.201822   1.908203   2.310547   13.67188   .0097656   4248.000   2188.000   2.878906   .3989258   .8789063   28.40625   25.10938
 2176.5768   2175.814   72.56250   28.48438   8.351563   60.99219   1.150625   1.500923   1.190430   1.869141   2.302734   13.57422   .0029297   4328.000   2160.000   3.128906   .2578125   .7812500   28.39063   26.26563
