~Version Information
VERS.                     2.0: CWLS log ASCII Standard Version 2.00
WRAP.                      NO: One line per depth step
~Well Information Block
#MNEM.UNIT                 Value                       Information
#------------              -----                       -----------
STRT.M                     39.6240                    :START
STOP.M                   2661.9708                    :STOP
STEP.M                       .1524                    :STEP
NULL.                     -999.25                     :NULL VALUE
WELL.         CHERVIL 1                               :Well Name
FLD .         CHERVIL                                 :Field
PROV.                                                 :Province
LOC .                                                 :Field Location
PD  .         MSL                                     :Permanent Datum
UWI .                                                 :Unique Well ID
ELZ .M               .00                              :Elevation Log Zero
OS  .                                                 :Services
SRVC.                                                 :Service company
DATE.                                                 :Date
~Curve Information
#MNEM   .UNIT             API CODE Curve Description
#------------             -------- -----------------
DEPT    .M                        :   1  Depth
DEP     .M                        :   2  Measured Depth
FDTU    .US/F                     :   3  Delta T
SGRC    .GAPI                     :   4  Gamma-Ray Log (Renamed from GR)
ACAL    .CM                       :   5  Caliper Log
SP      .MV                       :   6  Spontaneous Potential Log
LLS     .OHMM                     :   7  Shallow Laterolog
SEDP    .OHMM                     :   8  Laterolog Deep Resistivity
MSFL    .OHMM                     :   9  Micro Spherically Focused Log
PEF     .                         :  10  Photoelectric Factor
SBDC    .G/C3                     :  11  Compensated Formation Density Log
FSTP    .PU                       :  12  Neutron Log Porosity
DRHO    .G/C3                     :  13  Density Log Correction
NCNL    .CPS                      :  14
FCNL    .CPS                      :  15
THOR    .PPM                      :  16  Thorium
URAN    .PPM                      :  17  Uranium
POTA    .PU                       :  18  Potassium Concentration
SGR     .GAPI                     :  19  Spectral Gamma-Ray
CGR     .GAPI                     :  20  Computed Gamma-Ray (Thorium + Potassium)
~Parameter Information
#MNEM.UNIT       Value           Description
#------------    -----           -----------
BLI .M           2661.06        :Bottom log interval
TLI .M             39.47        :Top log interval
~Other Information
~A
# ...
 1697.4312   1696.821   80.90625   117.1875   12.80469   55.63672   5.731052   5.592972   9.861977   2.587891   2.519531   19.14063  -.0019531   2402.000   894.5000   16.09375  -.9931641   3.906250   116.9375   124.9375
 1697.5836   1696.974   81.25000   113.8750   12.80469   57.12500   5.621372   5.504520   9.398438   2.740234   2.531250   19.38477  -.0004883   2448.000   945.0000   14.75000  -.3715820   3.955078   116.1250   119.1250
 1697.7360   1697.126   80.81250   111.2500   12.80469   57.60938   5.584557   5.423016   9.414063   2.988281   2.533203   18.35938  -.0029297   2416.000   939.0000   14.55469  -.1650391   3.857422   116.9375   118.2500
 1697.8884   1697.279   79.98438   117.1250   12.80469   56.87500   5.619267   5.473015   10.21354   2.945313   2.541016   17.87109  -.0034180   2370.000   960.0000   15.11719  -.4711914   3.906250   114.3125   118.0625
 1698.0408   1697.431   79.64063   117.6250   12.80469   56.85938   5.710049   5.500027   9.617188   2.771484   2.523438   18.16406  -.0039063   2302.000   925.5000   16.12500  -1.236328   4.101563   117.6250   127.5625
 1698.1932   1697.583   80.28125   115.8750   12.82031   57.34375   5.588219   5.472771   9.460938   2.568359   2.513672   19.58008   .0014648   2220.000   842.5000   16.71875  -1.564453   4.150391   119.8750   132.3750
 1698.3456   1697.736   81.71875   117.0625   12.86719   58.39063   5.480675   5.280643   8.927078   2.527344   2.501953   21.82617   .0058594   2254.000   813.5000   15.53906  -.6118164   3.955078   127.1250   132.0000
 1698.4980   1697.888   83.51563   119.2500   12.88281   57.16797   5.311527   5.073635   8.854164   2.535156   2.501953   22.94922   .0087891   2268.000   769.5000   16.37500  -.9458008   3.906250   127.4375   135.0000
 1698.6504   1698.041   84.96875   126.8125   12.88281   57.15625   5.185257   4.961056   8.742188   2.474609   2.496094   23.43750   .0048828   2188.000   762.5000   16.64063  -1.000977   3.710938   126.6250   134.6250
 1698.8028   1698.193   85.46875   124.6250   12.87500   57.14844   5.029694   4.821026   8.265625   2.583984   2.501953   23.58398   .0048828   2224.000   774.0000   17.75000  -1.791992   3.808594   121.3125   135.7500
 1698.9552   1698.345   85.51563   125.0000   12.87500   57.38672   4.953899   4.735950   8.343750   2.500000   2.501953   22.70508   .0073242   2220.000   745.0000   16.26563  -1.312500   3.857422   123.6875   134.2500
 1699.1076   1698.498   85.65625   118.1250   12.88281   57.12109   4.876030   4.669388   8.575516   2.523438   2.507813   22.65625   .0117188   2238.000   832.5000   13.71094   .2998047   3.662109   122.9375   120.5625
 1699.2600   1698.650   85.95313   121.1250   12.86719   55.85547   4.849903   4.601646   7.523438   2.476563   2.513672   21.67969   .0151367   2318.000   808.5000   12.78906   .3261719   3.710938   126.3750   123.7500
 1699.4124   1698.802   86.26563   121.3750   12.87500   56.16016   4.860012   4.582455   7.381508   3.015625   2.533203   21.97266   .0146484   2338.000   843.5000   12.94531   .1865234   3.710938   125.9375   124.3750
 1699.5648   1698.955   85.57813   127.1250   12.88281   56.39844   4.974426   4.812973   7.804688   3.117188   2.552734   21.14258   .0102539   2410.000   877.0000   12.45313   .1049805   3.710938   125.5625   124.6875
 1699.7172   1699.107   83.67188   125.1875   12.87500   56.42188   5.273003   5.059231   7.619789   3.078125   2.558594   19.72656   .0073242   2500.000   926.0000   11.50000  -.1376953   3.857422   118.3750   119.4375
 1699.8696   1699.260   81.90625   118.3125   12.88281   55.41406   5.527657   5.359356   7.743488   2.662109   2.541016   19.23828   .0034180   2546.000   1030.000   11.75781  -.6064453   3.857422   112.3125   117.1875
 1700.0220   1699.412   80.45313   111.0000   12.88281   55.40234   5.814167   5.752163   8.273438   2.642578   2.542969   18.26172   .0083008   2754.000   1038.000   11.82031  -.5429688   3.808594   111.6875   116.0625
 1700.1744   1699.564   78.65625   109.4375   12.88281   56.17969   6.264225   6.250679   8.927078   2.761719   2.556641   18.21289   .0048828   2722.000   1092.000   12.17188  -.3569336   3.515625   110.3750   113.1875
 1700.3268   1699.717   76.60938   109.4375   12.88281   55.92188   6.841259   6.827866   9.575516   2.759766   2.583984   16.30859   .0029297   2890.000   1173.000   11.08594   .3164063   3.271484   104.9375   102.3750
 1700.4792   1699.869   74.21875   106.8125   12.88281   56.19531   7.498924   7.624622   10.89063   2.865234   2.605469   14.89258   .0034180   2896.000   1279.000   11.72656   .1318359   3.173828   97.62500   96.56250
 1700.6316   1700.022   71.42188   102.1875   12.88281   56.69141   8.519745   8.868958   15.03385   2.824219   2.613281   13.37891   .0053711   3058.000   1395.000   12.35156  -.4492188   3.320313   92.87500   96.50000
 1700.7840   1700.174   68.96875   98.50000   12.88281   56.68750   10.18609   10.58933   15.20833   2.908203   2.609375   12.30469   .0048828   3156.000   1465.000   12.99219  -1.152344   3.564453   89.68750   98.93750
 1700.9364   1700.326   67.67188   89.00000   12.88281   57.39453   11.52406   12.08754   30.88020   2.759766   2.587891   10.79102  -.0019531   2954.000   1450.000   12.67969  -.7285156   3.613281   84.68750   90.56250
 1701.0888   1700.479   67.46875   84.75000   12.88281   57.95313   12.15788   12.83674   27.95313   2.927734   2.562500   10.05859  -.0039063   2694.000   1430.000   13.23438  -.9028320   3.759766   85.37500   92.68750
 1701.2412   1700.631   68.76563   86.00000   12.88281   57.91406   11.71415   12.23727   24.85416   2.888672   2.546875   11.03516  -.0009766   2366.000   1181.000   16.28125  -1.678711   3.808594   91.81250   105.3125
 1701.3936   1700.784   72.28125   90.37500   12.88281   57.40234   9.464615   9.852112   14.83333   2.882813   2.533203   14.89258   .0029297   2226.000   995.0000   16.71875  -1.490234   3.955078   104.0000   116.0000
 1701.5460   1700.936   76.43750   98.43750   12.88281   57.71094   7.685772   7.887489   12.29688   2.732422   2.527344   18.94531   .0000000   2292.000   853.5000   15.13281  -.5605469   4.003906   114.8125   119.3125
 1701.6984   1701.088   79.42188   105.5625   12.88281   57.71094   6.645184   6.719513   9.625000   2.726563   2.521484   21.53320  -.0024414   2154.000   759.0000   15.29688  -.4199219   3.906250   121.1875   124.5625
 1701.8508   1701.241   81.26563   121.6250   12.88281   57.74219   5.833996   5.756588   9.281250   2.722656   2.527344   21.92383  -.0048828   2150.000   774.5000   15.97656  -.7602539   3.906250   122.3750   128.5000
 1702.0032   1701.393   82.07813   125.4375   12.88281   56.70703   5.373379   5.302677   8.835938   2.695313   2.519531   21.97266  -.0039063   2186.000   789.5000   15.64063  -.5952148   3.906250   123.3750   128.1250
 1702.1556   1701.546   82.34375   128.5000   12.88281   56.20313   5.110546   5.033283   10.39323   2.621094   2.523438   22.07031   .0000000   2154.000   757.5000   16.06250  -.7250977   3.857422   123.6875   129.5000
 1702.3080   1701.698   82.89063   127.8125   12.88281   56.94922   4.982353   4.922325   7.500000   2.609375   2.509766   22.60742   .0014648   2174.000   777.5000   16.42188  -.8769531   3.857422   124.5000   131.5000
 1702.4604   1701.851   83.46875   129.8750   12.88281   56.69531   4.992924   4.828144   7.325520   2.585938   2.503906   22.65625   .0014648   2166.000   750.0000   16.48438  -.9150391   3.808594   121.5625   128.8750
 1702.6128   1702.003   83.76563   129.3750   12.88281   56.18750   4.997765   4.758957   7.631508   2.585938   2.490234   23.04688   .0000000   2190.000   769.5000   16.17188  -.8979492   3.857422   119.1250   126.3750
 1702.7652   1702.155   83.87500   122.6250   12.88281   55.46875   5.008015   4.809227   7.552082   2.546875   2.494141   22.02148   .0000000   2160.000   750.0000   15.95313  -.6455078   3.808594   117.6875   122.8750
 1702.9176   1702.308   83.87500   123.1250   12.88281   55.71875   5.132519   4.811512   7.718750   2.421875   2.496094   22.36328   .0034180   2222.000   831.5000   16.32813  -.9736328   3.906250   119.3125   127.1250
