~Version Information
VERS.                     2.0: CWLS log ASCII Standard Version 2.00
WRAP.                      NO: One line per depth step
~Well Information Block
#MNEM.UNIT                 Value                       Information
#------------              -----                       -----------
STRT.M                     47.2440                    :START
STOP.M                   2609.8500                    :STOP
STEP.M                       .1524                    :STEP
NULL.                     -999.25                     :NULL VALUE
WELL.         NORTH HERALD 1                          :Well Name
FLD .         NORTH HERALD                            :Field
PROV.                                                 :Province
LOC .                                                 :Field Location
PD  .         MSL                                     :Permanent Datum
UWI .                                                 :Unique Well ID
ELZ .M               .00                              :Elevation Log Zero
OS  .                                                 :Services
SRVC.                                                 :Service company
DATE.                                                 :Date
~Curve Information
#MNEM   .UNIT             API CODE Curve Description
#------------             -------- -----------------
DEPT    .M                        :   1  Depth
DEP     .M                        :   2  Measured Depth
FDTU    .US/F                     :   3  Delta T
ACAL    .CM                       :   4  Caliper Log
SGRC    .GAPI                     :   5  Gamma-Ray Log
SP      .MV                       :   6  Spontaneous Potential Log
LLS     .OHMM                     :   7  Shallow Laterolog
SEDP    .OHMM                     :   8  Laterolog Deep Resistivity
MSFL    .OHMM                     :   9  Micro Spherically Focused Log
SBDC    .G/C3                     :  10  Compensated Formation Density Log
FSTP    .PU                       :  11  Neutron Log Porosity
DRHO    .G/C3                     :  12  Density Log Correction
PEF     .                         :  13  Photoelectric Factor
POTA    .PU                       :  14  Potassium Concentration
URAN    .PPM                      :  15  Uranium
THOR    .PPM                      :  16  Thorium
~Parameter Information
#MNEM.UNIT       Value           Description
#------------    -----           -----------
BLI .M           2608.94        :Bottom log interval
TLI .M             47.09        :Top log interval
~Other Information
~A
# ...
 1568.5008   1567.891   80.01563   12.54102   107.9688   52.80469   2.416878   2.833546   2.895182   2.479893   17.51480  -.0070658   2.148621   4.489326  -1.433655   13.28198
 1568.6532   1568.043   80.23438   12.51367   107.2500   53.00781   2.577686   2.991016   2.458332   2.471451   17.10014  -.0041656   2.157074   4.522346  -1.617920   13.49707
 1568.8056   1568.196   80.39063   12.47656   107.8750   53.43750   2.439762   2.797985   2.793619   2.468979   16.94478   .0012207   2.181702   4.584835  -1.846191   13.75171
 1568.9580   1568.348   79.39063   12.46094   111.4844   53.91406   2.348700   2.709171   2.547525   2.477707   16.77246   .0056152   2.196404   4.636524  -1.937958   13.84122
 1569.1104   1568.501   78.04688   12.46094   115.4531   54.09375   2.232174   2.577681   1.974283   2.490936   16.48216   .0058870   2.176300   4.666683  -1.846069   13.65308
 1569.2628   1568.653   77.04688   12.48047   116.0938   54.24219   2.190252   2.542990   2.409504   2.496668   16.22829   .0026436   2.116089   4.668114  -1.649170   13.39331
 1569.4152   1568.805   76.68750   12.50586   113.0156   54.66406   2.253716   2.557079   2.430988   2.489578   16.38985  -.0011406   2.045959   4.630756  -1.384033   13.18579
 1569.5676   1568.958   77.48438   12.50781   108.4063   54.99219   2.302902   2.624483   3.737629   2.476242   17.14783  -.0029225   2.002151   4.573296  -1.020996   12.83203
 1569.7200   1569.110   79.03125   12.51563   106.1563   54.96875   2.343977   2.694101   2.529297   2.466133   18.19687  -.0019951   1.997803   4.510830  -.6286621   12.32813
 1569.8724   1569.263   80.26563   12.51172   108.3906   54.71094   2.297241   2.587420   2.662109   2.462057   18.99910   .0005455   2.031738   4.441929  -.3690186   11.96704
 1570.0248   1569.415   80.46875   12.47852   113.6719   54.40625   2.188513   2.476156   2.307291   2.461138   19.25983   .0026207   2.097900   4.405308  -.3547363   11.82330
 1570.1772   1569.567   80.39063   12.46094   117.6563   54.16406   2.215870   2.532408   1.924153   2.458611   19.07883   .0026207   2.171387   4.456997  -.5903320   11.73181
 1570.3296   1569.720   80.89063   12.46094   116.7500   54.03125   2.154747   2.478680   2.198242   2.450226   18.72559   .0008965   2.215389   4.549644  -.8558350   11.57104
 1570.4820   1569.872   81.28125   12.46484   113.2500   53.92969   2.116449   2.381506   2.907551   2.437988   18.35938  -.0005960   2.208527   4.591274  -.9650879   11.42017
 1570.6344   1570.025   81.18750   12.49023   110.4688   53.71875   2.141203   2.452925   2.097330   2.431152   18.18561  -.0003738   2.170013   4.601334  -1.190918   11.66895
 1570.7868   1570.177   80.78125   12.52930   110.4219   53.39063   2.169512   2.485455   1.851236   2.438965   18.33496   .0014648   2.140137   4.589844  -1.543945   12.31445
 1570.9392   1570.330   79.92188   12.52539   113.2188   53.02344   2.268269   2.596834   2.206379   2.447998   18.44482   .0017090   2.135010   4.559326  -1.651123   12.61426
 1571.0916   1570.482   79.23926   12.48242   116.3594   52.76563   2.415546   2.767111   2.439453   2.457031   18.55469   .0019531   2.129883   4.528809  -1.758057   12.91406
 1571.2440   1570.634   79.09570   12.46094   116.6406   52.73438   2.412107   2.772549   2.905598   2.467102   18.19992  -.0002213   2.148193   4.483032  -1.844116   13.14307
 1571.3964   1570.787   78.89478   12.48242   113.2031   52.84375   2.357244   2.768581   2.167969   2.466919   16.80908  -.0038910   2.187012   4.458618  -1.840027   13.13257
 1571.5488   1570.939   77.96387   12.50391   108.1250   52.87500   2.346710   2.642994   1.907227   2.462433   14.92767  -.0081635   2.226501   4.425812  -1.658203   12.86377
 1571.7012   1571.092   76.39844   12.48242   104.0313   52.83594   2.295942   2.683001   2.614582   2.462524   13.70544  -.0109558   2.258545   4.364014  -1.264160   12.33691
 1571.8536   1571.244   75.53418   12.46094   101.7344   52.75000   2.423143   2.847052   2.630859   2.470276   13.93967  -.0099182   2.263580   4.295349  -.8090820   11.78125
 1572.0060   1571.396   75.91650   12.46094   99.60938   52.60938   2.469276   2.848249   3.399738   2.480347   15.45410  -.0045013   2.236877   4.280090  -.5521240   11.48242
 1572.1584   1571.549   77.23730   12.46094   98.01563   52.64844   2.471952   2.816332   3.126301   2.483826   17.30804   .0019302   2.191162   4.332733  -.5349731   11.42969
 1572.3108   1571.701   79.08594   12.46094   99.79688   52.84375   2.308094   2.703106   1.700195   2.475830   18.56079   .0046997   2.143311   4.425049  -.6618652   11.53223
 1572.4632   1571.854   80.23633   12.46094   105.5156   53.03125   2.163500   2.503323   1.786133   2.461639   18.81485   .0028229   2.110809   4.528046  -.9111328   11.84326
 1572.6156   1572.006   80.41370   12.46094   111.0938   53.17969   2.104868   2.454832   1.720377   2.451843   18.29071  -.0008392   2.096436   4.612732  -1.199463   12.26367
 1572.7680   1572.158   80.23535   12.46094   112.4531   53.38281   2.056871   2.360888   1.874023   2.450775   17.58881  -.0036240   2.090790   4.669952  -1.379761   12.56152
 1572.9204   1572.311   79.93408   12.46094   109.2969   53.74219   1.991172   2.315214   1.902018   2.453369   17.25769  -.0048828   2.093262   4.739380  -1.559570   12.87842
 1573.0728   1572.463   79.86383   12.46094   105.1094   54.00781   2.127254   2.422642   1.780924   2.453644   17.41104  -.0045624   2.095001   4.844666  -1.952148   13.47168
 1573.2252   1572.615   79.64868   12.46094   104.6563   54.20313   2.128960   2.461229   1.680664   2.451599   17.88330  -.0029755   2.083557   4.951477  -2.421875   14.06787
 1573.3776   1572.768   79.09570   12.46094   108.6094   54.41406   2.178114   2.530972   2.110025   2.451569   18.51807  -.0016327   2.086731   5.004120  -2.710449   14.43408
 1573.5300   1572.920   79.16956   12.46289   112.8594   54.41406   2.155682   2.537838   2.305338   2.457520   19.06738  -.0023193   2.127930   4.992676  -2.769043   14.67383
 1573.6824   1573.073   79.76367   12.48438   112.5625   54.40625   2.061846   2.432812   3.591797   2.471680   19.27490  -.0035400   2.162109   4.980469  -2.746582   14.89648
 1573.8348   1573.225   80.44287   12.52344   108.8750   54.53125   2.057472   2.375273   1.825521   2.481796   18.98766  -.0030804   2.156136   4.934502  -2.600464   14.98108
 1573.9872   1573.377   81.12549   12.54492   108.5313   54.46094   2.079302   2.438568   1.736002   2.476814   18.79730  -.0024052   2.154469   4.856205  -2.274902   14.81384
 1574.1396   1573.530   81.17853   12.54688   113.1250   54.18750   2.297873   2.632082   1.881185   2.463608   19.03572  -.0020177   2.212585   4.795933  -1.985352   14.58691
 1574.2920   1573.682   80.78662   12.53516   118.3125   54.02344   2.465845   2.966438   2.461588   2.457203   19.57703  -.0008326   2.311401   4.775822  -1.929142   14.48773
 1574.4444   1573.835   80.54736   12.50195   120.6250   53.94531   2.586599   3.092535   2.882160   2.462952   20.11452   .0014076   2.372711   4.790184  -1.973877   14.33691
 1574.5968   1573.987   80.39795   12.47656   119.8281   53.78906   2.627485   3.107197   2.667316   2.471191   20.18098   .0022763   2.362549   4.797363  -1.960205   14.08154
 1574.7492   1574.139   80.29718   12.48828   119.0313   53.78125   2.367395   2.730412   2.465494   2.470100   19.67697   .0000229   2.298340   4.790184  -1.979004   13.93933
 1574.9016   1574.292   80.15259   12.49805   119.0781   54.09375   2.183893   2.569580   2.399738   2.460052   18.98575  -.0038490   2.216980   4.791615  -2.113281   14.00696
 1575.0540   1574.444   80.03564   12.47656   118.3125   54.47656   2.224058   2.581224   2.163736   2.448784   18.68109  -.0072384   2.145935   4.803108  -2.277588   14.13757
 1575.2064   1574.597   80.45850   12.46094   116.4844   54.77344   2.236736   2.579325   1.953125   2.440338   19.15131  -.0095444   2.095123   4.829693  -2.436035   14.22797
 1575.3588   1574.749   81.32715   12.46094   114.4219   54.88281   2.113876   2.410185   2.976563   2.432762   20.14084  -.0110502   2.062683   4.879902  -2.698242   14.43066
