~Version Information
VERS.                     2.0: CWLS log ASCII Standard Version 2.00
WRAP.                      NO: One line per depth step
~Well Information Block
#MNEM.UNIT                 Value                       Information
#------------              -----                       -----------
STRT.M                     47.2440                    :START
STOP.M                   2609.8500                    :STOP
STEP.M                       .1524                    :STEP
NULL.                     -999.25                     :NULL VALUE
WELL.         NORTH HERALD 1                          :Well Name
FLD .         NORTH HERALD                            :Field
PROV.                                                 :Province
LOC .                                                 :Field Location
PD  .         MSL                                     :Permanent Datum
UWI .                                                 :Unique Well ID
ELZ .M               .00                              :Elevation Log Zero
OS  .                                                 :Services
SRVC.                                                 :Service company
DATE.                                                 :Date
~Curve Information
#MNEM   .UNIT             API CODE Curve Description
#------------             -------- -----------------
DEPT    .M                        :   1  Depth
DEP     .M                        :   2  Measured Depth
FDTU    .US/F                     :   3  Delta T
ACAL    .CM                       :   4  Caliper Log
SGRC    .GAPI                     :   5  Gamma-Ray Log
SP      .MV                       :   6  Spontaneous Potential Log
LLS     .OHMM                     :   7  Shallow Laterolog
SEDP    .OHMM                     :   8  Laterolog Deep Resistivity
MSFL    .OHMM                     :   9  Micro Spherically Focused Log
SBDC    .G/C3                     :  10  Compensated Formation Density Log
FSTP    .PU                       :  11  Neutron Log Porosity
DRHO    .G/C3                     :  12  Density Log Correction
PEF     .                         :  13  Photoelectric Factor
POTA    .PU                       :  14  Potassium Concentration
URAN    .PPM                      :  15  Uranium
THOR    .PPM                      :  16  Thorium
~Parameter Information
#MNEM.UNIT       Value           Description
#------------    -----           -----------
BLI .M           2608.94        :Bottom log interval
TLI .M             47.09        :Top log interval
~Other Information
~A
# ...
 2592.0192   2591.104   69.85938   8.107422   112.2813   59.37500   9.378685   9.756859   7.795570   2.608887   14.53857  -.0047607   3.904297    -999.25    -999.25    -999.25
 2592.1716   2591.257   66.46875   8.080078   108.7500   58.81250   10.44141   11.20564   6.756508   2.624023   14.20898   .0032959   3.769043    -999.25    -999.25    -999.25
 2592.3240   2591.410   65.28125   8.042969   102.1406   58.06250   12.42306   13.48307   9.761719   2.639160   13.57422   .0146484   3.596191    -999.25    -999.25    -999.25
 2592.4764   2591.562   66.43750   8.029297   99.75000   57.31250   12.66657   13.66253   134.4166   2.650391   13.64746   .0190430   3.549805    -999.25    -999.25    -999.25
 2592.6288   2591.714   69.89063   8.037109   102.8906   56.68750   12.17093   12.98477   15.64063   2.649414   14.66064   .0118408   3.502930    -999.25    -999.25    -999.25
 2592.7812   2591.867   72.93750   8.050781   107.2031   56.37500   10.07118   10.48202   10.61458   2.634277   15.56396   .0018311   3.354492    -999.25    -999.25    -999.25
 2592.9336   2592.019   73.71875   8.038086   109.8125   55.87500   7.825207   8.053436   13.34895   2.613281   15.63721  -.0019531   3.193359    -999.25    -999.25    -999.25
 2593.0860   2592.171   73.76563   7.985352   111.2813   55.50000   7.137199   7.316132   7.828125   2.591797   15.22217  -.0012207   3.040039    -999.25    -999.25    -999.25
 2593.2384   2592.324   73.93750   7.955078   112.1406   55.43750   7.060368   7.270691   5.753906   2.570801   14.81934  -.0017090   2.869141    -999.25    -999.25    -999.25
 2593.3908   2592.476   74.29688   7.966797   112.5313   55.37500   7.380741   7.554359   7.735676   2.553223   14.58740  -.0059814   2.735840    -999.25    -999.25    -999.25
 2593.5432   2592.628   74.89063   7.974609   113.2031   55.68750   8.031387   8.191711   10.55729   2.544922   14.31885  -.0104980   2.782227    -999.25    -999.25    -999.25
 2593.6956   2592.781   74.98438   7.970703   113.5000   55.06250   8.853752   8.938286   11.04427   2.547852   14.03809  -.0097656   2.989746    -999.25    -999.25    -999.25
 2593.8480   2592.934   74.42188   7.968750   113.2031   53.43750   9.152870   9.107735   10.22395   2.559082   14.09912  -.0030518   3.192383    -999.25    -999.25    -999.25
 2594.0004   2593.086   73.85938   7.972656   112.9219    -999.25   8.988899   8.941147   10.07813   2.573730   14.48975   .0045166   3.283691    -999.25    -999.25    -999.25
 2594.1528   2593.238   73.46875   7.976563   113.0625    -999.25   8.266037   8.280663   8.617188   2.586426   14.61182   .0070801   3.334961    -999.25    -999.25    -999.25
 2594.3052   2593.391   73.53125   7.977539   112.4219    -999.25   8.080345   8.169037   8.231766   2.591797   14.29443   .0035400   3.494141    -999.25    -999.25    -999.25
 2594.4576   2593.543   74.12500   7.976563   110.0313    -999.25   7.940784   8.072495   7.200520   2.590332   14.24561  -.0008545   3.684570    -999.25    -999.25    -999.25
 2594.6100   2593.695   74.46875   7.973633   108.7031    -999.25   7.615822   7.819942   9.062500   2.590332   14.86816  -.0006104   3.698242    -999.25    -999.25    -999.25
 2594.7624   2593.848   74.56250   7.974609   109.5625    -999.25   8.035011   8.300613   9.367188   2.593262   15.56396   .0024414   3.576660    -999.25    -999.25    -999.25
 2594.9148   2594.000   74.45313   7.976563   110.4844    -999.25   8.106384   8.376190   9.307289   2.598145   15.50293   .0037842   3.608398    -999.25    -999.25    -999.25
 2595.0672   2594.153   72.90625   7.976563   110.6250    -999.25   8.087448   8.351807   9.450516   2.614258   14.44092   .0031738   3.895020    -999.25    -999.25    -999.25
 2595.2196   2594.305   69.96875   7.974609   112.0625    -999.25   9.115921   9.480179   9.679688   2.650391   12.85400   .0036621   4.112305    -999.25    -999.25    -999.25
 2595.3720   2594.458   67.57813   7.975586   115.4375    -999.25   11.51591   12.22556   9.539063   2.688477   11.53564   .0050049   4.047363    -999.25    -999.25    -999.25
 2595.5244   2594.610   66.43750   7.980469   116.2656    -999.25   12.61246   13.48331   9.533852   2.699219   11.21826   .0056152   3.934570    -999.25    -999.25    -999.25
 2595.6768   2594.762   66.79688   7.979492   113.4219    -999.25   12.99796   13.92139   17.91927   2.679199   12.21924   .0072021   3.860352    -999.25    -999.25    -999.25
 2595.8292   2594.915   68.89063   7.977539   111.1563    -999.25   11.12691   11.76327   9.537758   2.645996   13.76953   .0101318   3.672363    -999.25    -999.25    -999.25
 2595.9816   2595.067   71.37500   7.981445   111.8438    -999.25   8.515907   8.885155   4.223305   2.616211   14.79492   .0120850   3.386230    -999.25    -999.25    -999.25
 2596.1340   2595.219   73.12500   7.984375   113.9063    -999.25   7.606186   7.888054   3.535156   2.592773   14.96582   .0103760   3.165039    -999.25    -999.25    -999.25
 2596.2864   2595.372   74.03125   7.984375   114.8125    -999.25   7.483227   7.807205   5.851563   2.580566   14.77051   .0063477   3.081055    -999.25    -999.25    -999.25
 2596.4388   2595.524   74.32813   7.983398   114.6094    -999.25   7.772598   8.150894   10.52083   2.583008   14.83154   .0028076   3.075195    -999.25    -999.25    -999.25
 2596.5912   2595.677   74.37500   7.979492   114.5781    -999.25   8.381386   8.731781   10.28645   2.592285   15.20996   .0007324   3.053711    -999.25    -999.25    -999.25
 2596.7436   2595.829   74.32813   7.974609   114.1250    -999.25   8.073334   8.371361   10.21614   2.600098   15.61279   .0010986   2.970703    -999.25    -999.25    -999.25
 2596.8960   2595.981   74.18750   7.966797   112.9063    -999.25   7.605846   7.901459   8.505203   2.601563   15.75928   .0028076   2.898438    -999.25    -999.25    -999.25
 2597.0484   2596.134   74.04688   7.955078   112.5938    -999.25   7.464565   7.759335   7.888020   2.599609   15.66162   .0039063   2.931641    -999.25    -999.25    -999.25
 2597.2008   2596.286   74.09375   7.953125   114.4531    -999.25   7.490635   7.760914   8.208328   2.598145   15.61279   .0029297   3.079102    -999.25    -999.25    -999.25
 2597.3532   2596.438   74.18750   7.959961   117.3281    -999.25   7.781284   8.104744   9.434891   2.596680   15.74707   .0003662   3.222168    -999.25    -999.25    -999.25
 2597.5056   2596.591   74.14063   7.962891   117.8438    -999.25   7.805935   8.036224   9.750000   2.591797   15.86914  -.0024414   3.223633    -999.25    -999.25    -999.25
 2597.6580   2596.744   74.28125   7.956055   115.9688    -999.25   7.749924   8.078796   8.971352   2.583984   15.85693  -.0047607   3.145020    -999.25    -999.25    -999.25
 2597.8104   2596.896   74.46875   7.938477   114.8750    -999.25   7.874680   8.125412   8.130203   2.580078   15.73486  -.0046387   3.137207    -999.25    -999.25    -999.25
 2597.9628   2597.048   74.37500   7.926758   115.1875    -999.25   7.898712   8.161858   7.113281   2.584473   15.55176  -.0019531   3.209473    -999.25    -999.25    -999.25
 2598.1152   2597.201   74.42188   7.924805   115.3438    -999.25   7.891258   8.182549   7.996094   2.590332   15.40527  -.0002441   3.176758    -999.25    -999.25    -999.25
 2598.2676   2597.353   74.71875   7.923828   114.4063    -999.25   7.920563   8.279564   9.888016   2.586426   15.42969  -.0023193   2.956055    -999.25    -999.25    -999.25
 2598.4200   2597.505   74.87500   7.926758   113.3125    -999.25   8.018921   8.326614   8.294266   2.573730   15.51514  -.0072021   2.806641    -999.25    -999.25    -999.25
 2598.5724   2597.658   74.76563   7.929688   112.7500    -999.25   8.104980   8.515396   8.989578   2.565918   15.47852  -.0106201   2.903320    -999.25    -999.25    -999.25
 2598.7248   2597.810    -999.25   7.927734   112.4219    -999.25   8.111237   8.559204   9.291664   2.569824   15.41748  -.0095215   3.102539    -999.25    -999.25    -999.25
 2598.8772   2597.962    -999.25   7.926758   112.3125    -999.25   8.164688   8.612320   9.333328   2.576172   15.47852  -.0056152   3.153320    -999.25    -999.25    -999.25
