~Version Information
VERS.                     2.0: CWLS log ASCII Standard Version 2.00
WRAP.                      NO: One line per depth step
~Well Information Block
#MNEM.UNIT                 Value                       Information
#------------              -----                       -----------
STRT.M                     47.2440                    :START
STOP.M                   2609.8500                    :STOP
STEP.M                       .1524                    :STEP
NULL.                     -999.25                     :NULL VALUE
WELL.         NORTH HERALD 1                          :Well Name
FLD .         NORTH HERALD                            :Field
PROV.                                                 :Province
LOC .                                                 :Field Location
PD  .         MSL                                     :Permanent Datum
UWI .                                                 :Unique Well ID
ELZ .M               .00                              :Elevation Log Zero
OS  .                                                 :Services
SRVC.                                                 :Service company
DATE.                                                 :Date
~Curve Information
#MNEM   .UNIT             API CODE Curve Description
#------------             -------- -----------------
DEPT    .M                        :   1  Depth
DEP     .M                        :   2  Measured Depth
FDTU    .US/F                     :   3  Delta T
ACAL    .CM                       :   4  Caliper Log
SGRC    .GAPI                     :   5  Gamma-Ray Log
SP      .MV                       :   6  Spontaneous Potential Log
LLS     .OHMM                     :   7  Shallow Laterolog
SEDP    .OHMM                     :   8  Laterolog Deep Resistivity
MSFL    .OHMM                     :   9  Micro Spherically Focused Log
SBDC    .G/C3                     :  10  Compensated Formation Density Log
FSTP    .PU                       :  11  Neutron Log Porosity
DRHO    .G/C3                     :  12  Density Log Correction
PEF     .                         :  13  Photoelectric Factor
POTA    .PU                       :  14  Potassium Concentration
URAN    .PPM                      :  15  Uranium
THOR    .PPM                      :  16  Thorium
~Parameter Information
#MNEM.UNIT       Value           Description
#------------    -----           -----------
BLI .M           2608.94        :Bottom log interval
TLI .M             47.09        :Top log interval
~Other Information
~A
# ...
  986.6376   986.3326   127.7656   15.91602   115.1250   9.473633   .8774605   .8567346   .8876953   2.232639   38.82446   .0333548   2.614081   4.621458   .3043213   9.670410
  986.7900   986.4851   127.0156   15.85547   116.8125   8.859253   .8832035   .8672715   .8413086   2.241169   39.42871   .0265884   2.632243   4.517698   .3848572   9.900391
  986.9424   986.6375   124.3281   15.82227   116.9063   8.022949   .8950809   .8902476   1.457031   2.252861   38.79776   .0097351   2.622503   4.459822   .2965088   10.27490
  987.0948   986.7899   122.8281   15.82031   118.4375   7.335449   .9578966   .9302534   1.593750   2.269859   37.99629  -.0015869   2.549205   4.492188  -.0781250   10.83203
  987.2472   986.9423   122.8281   15.82031   120.9375   6.867188   .9679954   .9304343   1.637044   2.285805   37.73851  -.0043223   2.432606   4.548788  -.6220703   11.49170
  987.3996   987.0947   122.3750   15.82031   120.0469   6.648438   .9881507   .9387872   1.714844   2.294049   37.28180  -.0034990   2.335064   4.543209  -.9502640   11.81812
  987.5520   987.2471   121.7188   15.82031   115.1406   6.822266   .9886777   .9460419   1.732096   2.293442   36.14349  -.0025635   2.306746   4.442978  -.7734375   11.41748
  987.7044   987.3995   121.7188   15.82031   110.7500   7.061523   .9634370   .9136167   1.653971   2.285774   35.09941  -.0029631   2.356324   4.284668  -.2470703   10.60352
  987.8568   987.5519   122.7656   15.82031   109.3594   6.856934   .9795132   .8968309   1.582682   2.276558   34.70926  -.0042801   2.462255   4.180717   .0295410   10.25116
  988.0092   987.7043   124.2188   15.82031   110.0938   6.466797   .9665192   .8817763   1.627604   2.270893   35.15320  -.0050049   2.571664   4.165554  -.0438538   10.39349
  988.1616   987.8567   125.1719   15.82031   110.1250   6.155762   .9453201   .8866197   1.585612   2.269376   36.39755  -.0046997   2.632388   4.172033  -.0953979   10.54297
  988.3140   988.0092   125.6719   15.82031   108.9688   5.930176   .9465551   .8684602   1.498698   2.271233   37.64458  -.0031967   2.626309   4.172945  -.1772461   10.78516
  988.4664   988.1615   126.0313   15.82031   108.2969   5.814453   .9490877   .8516099   1.585612   2.273829   37.73651  -.0013447   2.567626   4.233027  -.4515381   11.06490
  988.6188   988.3138   126.6250   15.82031   107.6719   5.426270   .9288943   .8633832   1.583333   2.272194   36.36093  -.0011425   2.495738   4.330158  -.6764526   11.01245
  988.7712   988.4663   127.7188   15.82031   106.5000   4.969727   .8995441   .8312756   1.616211   2.264893   34.99966  -.0028276   2.435253   4.368085  -.7833252   10.85675
  988.9236   988.6187   128.8750   15.82031   104.3438   4.958008   .8787894   .8235718   1.516602   2.255093   35.04105  -.0050192   2.393919   4.348660  -.9368591   10.96863
  989.0760   988.7711   129.6563   15.82031   100.8438   4.948242   .8793451   .7921973   1.495443   2.247648   36.01570  -.0065529   2.360757   4.291892  -1.011169   11.14502
  989.2284   988.9235   130.1250   15.82031   96.51563   4.628906   .8764850   .7887512   1.520508   2.245295   36.72247  -.0070357   2.312434   4.269123  -1.127930   11.34106
  989.3808   989.0759   130.2813   15.82031   93.18750   4.332031   .8784018   .8026079   1.499349   2.246996   36.46088  -.0066104   2.249056   4.339957  -1.479248   11.70752
  989.5332   989.2283   129.7188   15.82031   92.76563   4.001953   .8753933   .8143522   1.484375   2.250799   35.38742  -.0056818   2.197886   4.391193  -1.768677   12.12231
  989.6856   989.3807   128.6875   15.82031   93.93750   3.583984   .8945961   .8088917   1.530924   2.254017   33.92029  -.0050716   2.186867   4.355145  -1.869202   12.47314
  989.8380   989.5331   128.0938   15.91602   94.85938   3.316406   .8794589   .7989812   1.669922   2.255342   32.53136  -.0043502   2.208373   4.324245  -1.994263   12.81274
  989.9904   989.6855   128.2500   16.05078   95.75000   2.948242   .9135718   .8249582   1.594727   2.254749   32.40662  -.0037174   2.231304   4.373980  -2.268066   13.19385
  990.1428   989.8379   129.0938   16.03906   96.71875   2.342773   .9005584   .8159755   1.424479   2.251835   33.94165  -.0049534   2.234206   4.457426  -2.512634   13.49939
  990.2952   989.9904   129.9688   15.99414   97.23438   1.830078   .9272745   .8313854   1.430990   2.248017   36.10764  -.0072188   2.229839   4.516787  -2.654114   13.73486
  990.4476   990.1427   129.8438   16.00000   97.96875   1.638672   .9332256   .8374281   1.422526   2.250000   37.89063  -.0075684   2.224754   4.479980  -2.697266   14.29297
  990.6000   990.2950   128.8438   16.00000   100.3438   1.650391   .9234118   .8291824   1.405924   2.259766   37.39014  -.0073242   2.219408   4.431152  -2.375977   13.99219
  990.7524   990.4475   127.5625   16.00000   104.3594   1.632813   .9385935   .8332082   1.563802   2.273438   36.91406  -.0083008   2.232218   4.394531  -2.203125   13.93164
  990.9048   990.5999   126.0781   16.00000   107.9063   1.766602   .9364371   .8358922   1.620117   2.289063   37.42676  -.0084229   2.265369   4.357910  -2.177734   14.05078
  991.0572   990.7523   124.3750   16.02344   108.7813   1.955078   .9389532   .8441501   1.546224   2.303223   38.46436  -.0080566   2.286712   4.431152  -2.249023   13.76953
  991.2096   990.9047   122.8750   16.07031   107.1094   2.101563   .9232166   .8430806   1.646484   2.311523   38.47656  -.0084229   2.284900   4.699707  -2.628418   13.35742
  991.3620   991.0571   122.2813   16.09375   104.5625   2.419922   .8841208   .8042680   1.681966   2.309082   37.29248  -.0095215   2.271725   4.956055  -3.030273   13.20703
  991.5144   991.2095   122.3750   16.09375   104.6250   2.624023   .8728132   .7926469   1.589193   2.297363   35.74219  -.0106201   2.270200   5.017090  -3.141602   13.33203
  991.6668   991.3619   121.8125   16.08984   107.1406   2.688477   .8593626   .7949764   1.486654   2.281738   35.20508  -.0095215   2.275680   5.041504  -3.392578   13.75977
  991.8192   991.5143   121.5156   16.06250   109.2188   3.065430   .9048647   .8440716   1.595703   2.257324   35.85205  -.0042725   2.249716   5.078125  -3.476563   13.71289
  991.9716   991.6667   122.6250   16.05469   109.0781   3.793945   .9013160   .8447994   1.724609   2.223145   37.02393   .0057373   2.177985   5.029297  -3.201172   13.26367
  992.1240   991.8191   123.5156   16.10547   107.1563   4.265625   .9210536   .8712634   1.521159   2.206055   38.35449   .0201416   2.088678   5.017090  -3.205566   13.14844
  992.2764   991.9714   124.7188   16.14453   106.5469   4.417969   .9577193   .9065665   .9111328   2.227051   39.24561   .0269775   2.089313   5.017090  -3.189941   12.82617
  992.4288   992.1239   124.7344   16.15625   106.9844   4.663086   1.000082   .9227835   .4047852   2.272949   39.37988   .0164795   2.279593   4.882813  -2.886230   12.33594
  992.5812   992.2762   122.1875   16.14844   106.8750   4.897461   1.004692   .9596192   1.346517   2.309082   38.47656   .0007324   2.558643   4.821777  -2.820801   12.18750
  992.7336   992.4287   120.1875   16.11328   104.7969   5.120117   1.089015   1.032388   1.634766   2.310547   36.98730  -.0090332   2.696103   4.846191  -2.900391   12.18750
  992.8860   992.5811   119.2813   16.09375   101.2344   5.191406   1.061829   1.012442   1.568359   2.291504   35.77881  -.0117188   2.617563   4.821777  -2.917969   12.29492
  993.0384   992.7335   119.7188   16.09375   98.76563   4.902344   1.027919   .9669151   1.552734   2.274902   34.70459  -.0117188   2.496417   4.797363  -2.841309   12.29102
  993.1908   992.8859   121.8594   16.09375   99.03125   4.590820   .9673309   .9134156   1.583333   2.266602   33.78906  -.0126953   2.468760   4.797363  -2.638184   11.94336
  993.3432   993.0383   124.1563   16.09375   102.0625   4.740234   .9220163   .8822446   1.552409   2.266602   33.83789  -.0122070   2.475790   4.809570  -2.397461   11.39258
  993.4956   993.1907   125.2656   16.09375   105.4531   5.387695   .8999144   .8791411   1.454427   2.273438   35.00977  -.0087891   2.454091   4.772949  -2.061523   10.68555
