~Version Information
VERS.                     2.0: CWLS log ASCII Standard Version 2.00
WRAP.                      NO: One line per depth step
~Well Information Block
#MNEM.UNIT                 Value                       Information
#------------              -----                       -----------
STRT.M                     47.2440                    :START
STOP.M                   2609.8500                    :STOP
STEP.M                       .1524                    :STEP
NULL.                     -999.25                     :NULL VALUE
WELL.         NORTH HERALD 1                          :Well Name
FLD .         NORTH HERALD                            :Field
PROV.                                                 :Province
LOC .                                                 :Field Location
PD  .         MSL                                     :Permanent Datum
UWI .                                                 :Unique Well ID
ELZ .M               .00                              :Elevation Log Zero
OS  .                                                 :Services
SRVC.                                                 :Service company
DATE.                                                 :Date
~Curve Information
#MNEM   .UNIT             API CODE Curve Description
#------------             -------- -----------------
DEPT    .M                        :   1  Depth
DEP     .M                        :   2  Measured Depth
FDTU    .US/F                     :   3  Delta T
ACAL    .CM                       :   4  Caliper Log
SGRC    .GAPI                     :   5  Gamma-Ray Log
SP      .MV                       :   6  Spontaneous Potential Log
LLS     .OHMM                     :   7  Shallow Laterolog
SEDP    .OHMM                     :   8  Laterolog Deep Resistivity
MSFL    .OHMM                     :   9  Micro Spherically Focused Log
SBDC    .G/C3                     :  10  Compensated Formation Density Log
FSTP    .PU                       :  11  Neutron Log Porosity
DRHO    .G/C3                     :  12  Density Log Correction
PEF     .                         :  13  Photoelectric Factor
POTA    .PU                       :  14  Potassium Concentration
URAN    .PPM                      :  15  Uranium
THOR    .PPM                      :  16  Thorium
~Parameter Information
#MNEM.UNIT       Value           Description
#------------    -----           -----------
BLI .M           2608.94        :Bottom log interval
TLI .M             47.09        :Top log interval
~Other Information
~A
# ...
  404.7744   404.6219   125.1006   18.03125   45.46875  -9.812500   .4725268   .4979656   .8709309    -999.25    -999.25    -999.25    -999.25    -999.25    -999.25    -999.25
  404.9268   404.7743   125.0073   17.90625   44.96875  -10.56250   .4940425   .4985730   .9236653    -999.25    -999.25    -999.25    -999.25    -999.25    -999.25    -999.25
  405.0792   404.9267   126.3174   17.76563   44.21875  -9.562500   .4616794   .4967363   .7283528    -999.25    -999.25    -999.25    -999.25    -999.25    -999.25    -999.25
  405.2316   405.0791   126.9200   17.59375   44.25000  -9.625000   .4609432   .4992906   .7677408    -999.25    -999.25    -999.25    -999.25    -999.25    -999.25    -999.25
  405.3840   405.2315   126.8312   17.59375   46.56250  -9.500000   .4662778   .5078382   .8305664    -999.25    -999.25    -999.25    -999.25    -999.25    -999.25    -999.25
  405.5364   405.3839   126.9175   17.70313   47.12500  -9.250000   .4633784   .5037794   .8860676    -999.25    -999.25    -999.25    -999.25    -999.25    -999.25    -999.25
  405.6888   405.5363   127.9976   17.53125   48.00000  -8.687500   .4627308   .4984173   .8639323    -999.25    -999.25    -999.25    -999.25    -999.25    -999.25    -999.25
  405.8412   405.6887   129.5723   17.35938   47.15625  -9.187500   .4474539   .5078869   .8248698    -999.25    -999.25    -999.25    -999.25    -999.25    -999.25    -999.25
  405.9936   405.8411   130.2887   17.28125   48.65625  -8.500000   .4613702   .4978179   .8343098    -999.25    -999.25    -999.25    -999.25    -999.25    -999.25    -999.25
  406.1460   405.9935   129.7251   17.28125   51.68750  -8.000000   .4537046   .4896141   .7915039    -999.25    -999.25    -999.25    -999.25    -999.25    -999.25    -999.25
  406.2984   406.1459   129.8586   17.28125   52.50000  -7.875000   .4364161   .4813142   .7509766    -999.25    -999.25    -999.25    -999.25    -999.25    -999.25    -999.25
  406.4508   406.2983   130.2849   17.28125   50.71875  -7.625000   .4221048   .4669536   .7465820    -999.25    -999.25    -999.25    -999.25    -999.25    -999.25    -999.25
  406.6032   406.4507   128.9473   17.20313   49.81250  -9.250000   .4487726   .4863017   .7543945    -999.25    -999.25    -999.25    -999.25    -999.25    -999.25    -999.25
  406.7556   406.6031   126.5122   17.20313   48.21875  -9.000000   .4523615   .5046273   .8076172    -999.25    -999.25    -999.25    -999.25    -999.25    -999.25    -999.25
  406.9080   406.7555   120.9570   17.06250   51.40625  -10.00000   .4576069   .5246583   1.012044    -999.25    -999.25    -999.25    -999.25    -999.25    -999.25    -999.25
  407.0604   406.9079   112.2266   16.93750   50.46875  -9.750000   .4808567   .5310456   1.097005    -999.25    -999.25    -999.25    -999.25    -999.25    -999.25    -999.25
  407.2128   407.0603   108.8313   16.87500   51.65625  -10.62500   .4907250   .5370888   1.051107    -999.25    -999.25    -999.25    -999.25    -999.25    -999.25    -999.25
  407.3652   407.2127   109.3427   16.81250   47.75000  -10.00000   .4727025   .5403117   .9321289    -999.25    -999.25    -999.25    -999.25    -999.25    -999.25    -999.25
  407.5176   407.3651   111.9785   17.03125   47.75000  -8.937500   .4585718   .5292619   .8164063    -999.25    -999.25    -999.25    -999.25    -999.25    -999.25    -999.25
  407.6700   407.5175   121.2383   16.98438   48.65625  -9.000000   .4553844   .5225954   .8216145    -999.25    -999.25    -999.25    -999.25    -999.25    -999.25    -999.25
  407.8224   407.6699   128.2314   16.87500   51.53125  -8.312500   .4699000   .5316405   .8123372    -999.25    -999.25    -999.25    -999.25    -999.25    -999.25    -999.25
  407.9748   407.8223   131.7822   16.90625   49.12500  -8.687500   .4499521   .5272226   .7791340    -999.25    -999.25    -999.25    -999.25    -999.25    -999.25    -999.25
  408.1272   407.9747   133.8129   16.87500   45.15625  -8.500000   .4497429   .5062172   .7537434    -999.25    -999.25    -999.25    -999.25    -999.25    -999.25    -999.25
  408.2796   408.1271   133.4739   16.79688   44.46875  -9.500000   .4610893   .5167836   .7503254    -999.25    -999.25    -999.25    -999.25    -999.25    -999.25    -999.25
  408.4320   408.2795   132.4263   16.76563   47.12500  -9.437500   .4633057   .5205706   .7752278    -999.25    -999.25    -999.25    -999.25    -999.25    -999.25    -999.25
  408.5844   408.4319   129.7256   16.76563   48.71875  -9.062500   .4672216   .5333362   .8103840    -999.25    -999.25    -999.25    -999.25    -999.25    -999.25    -999.25
  408.7368   408.5843   125.8516   16.68750   49.59375  -8.437500   .4929748   .5507395   .8624674    -999.25    -999.25    -999.25    -999.25    -999.25    -999.25    -999.25
  408.8892   408.7367   125.0601   16.46875   48.37500  -6.625000   .5028057   .5681727   .8868815    -999.25    -999.25    -999.25    -999.25    -999.25    -999.25    -999.25
  409.0416   408.8891   125.9922   16.51563   50.96875  -6.375000   .5082684   .5715368   .8391926    -999.25    -999.25    -999.25    -999.25    -999.25    -999.25    -999.25
  409.1940   409.0415   128.1406   16.62500   51.62500  -6.062500   .5016381   .5932109   .8458658    -999.25    -999.25    -999.25    -999.25    -999.25    -999.25    -999.25
  409.3464   409.1939   131.2437   16.71875   51.75000  -7.125000   .5050339   .5553360   .8369141    -999.25    -999.25    -999.25    -999.25    -999.25    -999.25    -999.25
  409.4988   409.3463   132.9709   16.84375   48.46875  -6.937500   .4901616   .5376681   .8294270    -999.25    -999.25    -999.25    -999.25    -999.25    -999.25    -999.25
  409.6512   409.4987   133.3750   16.73438   47.62500  -6.625000   .4547747   .5232438   .7805989    -999.25    -999.25    -999.25    -999.25    -999.25    -999.25    -999.25
  409.8036   409.6511   133.2430   16.73438   52.31250  -7.750000   .4545736   .4955111   .7636719    -999.25    -999.25    -999.25    -999.25    -999.25    -999.25    -999.25
  409.9560   409.8035   131.7524   16.67188   53.81250  -8.187500   .4625586   .5182556   .7542317    -999.25    -999.25    -999.25    -999.25    -999.25    -999.25    -999.25
  410.1084   409.9559   128.0400   16.59375   52.43750  -8.937500   .5017701   .5579739   .7775065    -999.25    -999.25    -999.25    -999.25    -999.25    -999.25    -999.25
  410.2608   410.1083   122.9941   16.60938   48.68750  -8.812500   .5339545   .6224123   .8846028    -999.25    -999.25    -999.25    -999.25    -999.25    -999.25    -999.25
  410.4132   410.2607   119.1694   16.73438   46.06250  -8.750000   .5651751   .6386613   1.118164    -999.25    -999.25    -999.25    -999.25    -999.25    -999.25    -999.25
  410.5656   410.4131   118.5027   16.70313   49.65625  -7.125000   .5509629   .6333029   .9798176    -999.25    -999.25    -999.25    -999.25    -999.25    -999.25    -999.25
  410.7180   410.5655   121.6748   16.70313   49.21875  -7.000000   .5424577   .6067184   .8479817    -999.25    -999.25    -999.25    -999.25    -999.25    -999.25    -999.25
  410.8704   410.7179   126.5293   16.76563   51.78125  -6.000000   .5295448   .6009070   .8663737    -999.25    -999.25    -999.25    -999.25    -999.25    -999.25    -999.25
  411.0228   410.8703   129.8467   16.76563   49.81250  -7.375000   .5116549   .5835538   .8836262    -999.25    -999.25    -999.25    -999.25    -999.25    -999.25    -999.25
  411.1752   411.0227   131.4822   16.82813   48.28125  -8.187500   .4919915   .5595746   .8248698    -999.25    -999.25    -999.25    -999.25    -999.25    -999.25    -999.25
  411.3276   411.1751   131.7614   16.78125   47.65625  -8.312500   .4945773   .5446981   .7547200    -999.25    -999.25    -999.25    -999.25    -999.25    -999.25    -999.25
  411.4800   411.3275   131.2639   16.67188   51.56250  -8.687500   .4601150   .5310152   .7076823    -999.25    -999.25    -999.25    -999.25    -999.25    -999.25    -999.25
  411.6324   411.4799   131.1752   16.78125   53.68750  -9.187500   .4625434   .5286359   .7338867    -999.25    -999.25    -999.25    -999.25    -999.25    -999.25    -999.25
