~Version Information
VERS.                     2.0: CWLS log ASCII Standard Version 2.00
WRAP.                      NO: One line per depth step
~Well Information Block
#MNEM.UNIT                 Value                       Information
#------------              -----                       -----------
STRT.M                     47.2440                    :START
STOP.M                   2609.8500                    :STOP
STEP.M                       .1524                    :STEP
NULL.                     -999.25                     :NULL VALUE
WELL.         NORTH HERALD 1                          :Well Name
FLD .         NORTH HERALD                            :Field
PROV.                                                 :Province
LOC .                                                 :Field Location
PD  .         MSL                                     :Permanent Datum
UWI .                                                 :Unique Well ID
ELZ .M               .00                              :Elevation Log Zero
OS  .                                                 :Services
SRVC.                                                 :Service company
DATE.                                                 :Date
~Curve Information
#MNEM   .UNIT             API CODE Curve Description
#------------             -------- -----------------
DEPT    .M                        :   1  Depth
DEP     .M                        :   2  Measured Depth
FDTU    .US/F                     :   3  Delta T
ACAL    .CM                       :   4  Caliper Log
SGRC    .GAPI                     :   5  Gamma-Ray Log
SP      .MV                       :   6  Spontaneous Potential Log
LLS     .OHMM                     :   7  Shallow Laterolog
SEDP    .OHMM                     :   8  Laterolog Deep Resistivity
MSFL    .OHMM                     :   9  Micro Spherically Focused Log
SBDC    .G/C3                     :  10  Compensated Formation Density Log
FSTP    .PU                       :  11  Neutron Log Porosity
DRHO    .G/C3                     :  12  Density Log Correction
PEF     .                         :  13  Photoelectric Factor
POTA    .PU                       :  14  Potassium Concentration
URAN    .PPM                      :  15  Uranium
THOR    .PPM                      :  16  Thorium
~Parameter Information
#MNEM.UNIT       Value           Description
#------------    -----           -----------
BLI .M           2608.94        :Bottom log interval
TLI .M             47.09        :Top log interval
~Other Information
~A
# ...
  839.4192   839.1143   130.8860   18.06250   61.34375   11.37500   .8961293   .8388609   1.325521    -999.25    -999.25    -999.25    -999.25    -999.25    -999.25    -999.25
  839.5716   839.2667   131.1250   18.15625   61.96875   10.71875   .8669930   .8486814   1.205078    -999.25    -999.25    -999.25    -999.25    -999.25    -999.25    -999.25
  839.7240   839.4191   131.9404   18.20313   59.09375   11.12500   .8940314   .8140311   1.279948    -999.25    -999.25    -999.25    -999.25    -999.25    -999.25    -999.25
  839.8764   839.5715   133.1484   18.26563   59.43750   11.84375   .8748200   .8120823   1.303060    -999.25    -999.25    -999.25    -999.25    -999.25    -999.25    -999.25
  840.0288   839.7239   132.6594   18.17188   60.03125   11.46875   .8601493   .7945088   1.368164    -999.25    -999.25    -999.25    -999.25    -999.25    -999.25    -999.25
  840.1812   839.8763   131.7305   18.21875   60.43750   11.21875   .8480786   .8061799   .9454752    -999.25    -999.25    -999.25    -999.25    -999.25    -999.25    -999.25
  840.3336   840.0287   129.7861   18.26563   57.50000   10.87500   .8856069   .8218646   1.032877    -999.25    -999.25    -999.25    -999.25    -999.25    -999.25    -999.25
  840.4860   840.1812   128.3198   18.04688   57.21875   11.25000   .8911283   .8296084   1.390950    -999.25    -999.25    -999.25    -999.25    -999.25    -999.25    -999.25
  840.6384   840.3335   127.6305   17.89063   55.03125   11.62500   .9033849   .8481998   1.406250    -999.25    -999.25    -999.25    -999.25    -999.25    -999.25    -999.25
  840.7908   840.4858   127.9766   17.84375   55.96875   11.53125   .9169196   .8690021   1.446289    -999.25    -999.25    -999.25    -999.25    -999.25    -999.25    -999.25
  840.9432   840.6383   129.3262   17.75000   56.53125   11.56250   .9159575   .8577439   1.443685    -999.25    -999.25    -999.25    -999.25    -999.25    -999.25    -999.25
  841.0956   840.7906   131.8604   17.70313   57.25000   11.68750   .8885907   .8344835   1.441732    -999.25    -999.25    -999.25    -999.25    -999.25    -999.25    -999.25
  841.2480   840.9431   133.3750   17.64063   55.81250   12.31250   .8909123   .8213754   1.441081    -999.25    -999.25    -999.25    -999.25    -999.25    -999.25    -999.25
  841.4004   841.0955   133.2844   17.64063   52.87500   12.53125   .8816684   .8194627   1.242838    -999.25    -999.25    -999.25    -999.25    -999.25    -999.25    -999.25
  841.5528   841.2479   132.1289   17.37500   54.46875   11.87500   .8663439   .8106401   1.233073    -999.25    -999.25    -999.25    -999.25    -999.25    -999.25    -999.25
  841.7052   841.4003   130.2390   17.32813   53.56250   12.21875   .8772331   .8177298   1.271159    -999.25    -999.25    -999.25    -999.25    -999.25    -999.25    -999.25
  841.8576   841.5527   130.0453   17.50000   54.06250   12.43750   .8963248   .8295081   1.167318    -999.25    -999.25    -999.25    -999.25    -999.25    -999.25    -999.25
  842.0100   841.7051   129.9890   17.57813   54.50000   12.06250   .8931102   .8441745   1.256510    -999.25    -999.25    -999.25    -999.25    -999.25    -999.25    -999.25
  842.1624   841.8575   129.9766   17.79688   56.78125   11.71875   .9144627   .8441740   1.206706    -999.25    -999.25    -999.25    -999.25    -999.25    -999.25    -999.25
  842.3148   842.0099   130.6016   17.93750   56.53125   12.21875   .8833890   .8339262   1.282552    -999.25    -999.25    -999.25    -999.25    -999.25    -999.25    -999.25
  842.4672   842.1624   131.1360   17.95313   55.71875   12.71875   .8763338   .8210881   1.389323    -999.25    -999.25    -999.25    -999.25    -999.25    -999.25    -999.25
  842.6196   842.3147   131.7373   17.95313   56.71875   11.96875   .8634890   .7936740   1.401042    -999.25    -999.25    -999.25    -999.25    -999.25    -999.25    -999.25
  842.7720   842.4670   133.5078   18.03125   59.40625   11.25000   .8258097   .8097553   1.432617    -999.25    -999.25    -999.25    -999.25    -999.25    -999.25    -999.25
  842.9244   842.6195   135.0923   18.25000   62.34375   10.84375   .8375256   .7893428   1.354492    -999.25    -999.25    -999.25    -999.25    -999.25    -999.25    -999.25
  843.0768   842.7719   134.4203   18.45313   62.90625   11.62500   .8397473   .7886051   1.403971    -999.25    -999.25    -999.25    -999.25    -999.25    -999.25    -999.25
  843.2292   842.9243   134.4547   18.40625   61.65625   12.40625   .8448139   .8211126   1.365885    -999.25    -999.25    -999.25    -999.25    -999.25    -999.25    -999.25
  843.3816   843.0767   132.8359   18.14063   58.40625   11.65625   .8350927   .8126851   1.246094    -999.25    -999.25    -999.25    -999.25    -999.25    -999.25    -999.25
  843.5340   843.2291   129.7627   17.90625   56.18750   10.81250   .8849593   .8136042   .8746744    -999.25    -999.25    -999.25    -999.25    -999.25    -999.25    -999.25
  843.6864   843.3815   130.0762   17.85938   59.18750   10.68750   .9013195   .8323778   1.180013    -999.25    -999.25    -999.25    -999.25    -999.25    -999.25    -999.25
  843.8388   843.5339   131.1162   17.78125   59.71875   10.68750   .8907043   .8284905   1.272135    -999.25    -999.25    -999.25    -999.25    -999.25    -999.25    -999.25
  843.9912   843.6863   130.1812   17.82813   58.40625   10.96875   .8684925   .8284705   .8911133    -999.25    -999.25    -999.25    -999.25    -999.25    -999.25    -999.25
  844.1436   843.8387   130.8623   18.20313   56.28125   11.81250   .9023591   .8187521   .5180664    -999.25    -999.25    -999.25    -999.25    -999.25    -999.25    -999.25
  844.2960   843.9911   129.6426   17.87500   58.18750   12.37500   .8849026   .8420318   .8180338    -999.25    -999.25    -999.25    -999.25    -999.25    -999.25    -999.25
  844.4484   844.1436   126.9639   17.78125   61.18750   11.87500   .9006832   .8645736   1.343424    -999.25    -999.25    -999.25    -999.25    -999.25    -999.25    -999.25
  844.6008   844.2959   125.9629   17.62500   61.90625   11.34375   .9194108   .8690934   1.428060    -999.25    -999.25    -999.25    -999.25    -999.25    -999.25    -999.25
  844.7532   844.4482   115.9922   17.59375   57.84375   11.81250   .9925631   .9111987   1.412109    -999.25    -999.25    -999.25    -999.25    -999.25    -999.25    -999.25
  844.9056   844.6007   105.2031   17.62500   49.87500   11.84375   1.087770   1.012768   1.426107    -999.25    -999.25    -999.25    -999.25    -999.25    -999.25    -999.25
  845.0580   844.7531   106.8604   17.89063   45.90625   11.84375   1.215084   1.109311   .8579102    -999.25    -999.25    -999.25    -999.25    -999.25    -999.25    -999.25
  845.2104   844.9055   111.3398   17.21875   51.18750   11.71875   1.153326   1.123145   2.455729    -999.25    -999.25    -999.25    -999.25    -999.25    -999.25    -999.25
  845.3628   845.0579   121.0703   17.21875   57.28125   11.81250   1.138799   1.099757   1.769531    -999.25    -999.25    -999.25    -999.25    -999.25    -999.25    -999.25
  845.5152   845.2103   129.5439   17.35938   60.43750   11.93750   1.010072   .9806399   1.217285    -999.25    -999.25    -999.25    -999.25    -999.25    -999.25    -999.25
  845.6676   845.3627   132.2656   17.79688   56.34375   11.81250   .9352278   .8301967   .7485352    -999.25    -999.25    -999.25    -999.25    -999.25    -999.25    -999.25
  845.8200   845.5151   133.4727   17.79688   57.71875   11.84375   .8790430   .8280115   1.173502    -999.25    -999.25    -999.25    -999.25    -999.25    -999.25    -999.25
  845.9724   845.6675   132.3008   17.64063   53.06250   11.50000   .8678113   .8301795   1.297852    -999.25    -999.25    -999.25    -999.25    -999.25    -999.25    -999.25
  846.1248   845.8199   128.7422   17.37500   52.87500   11.06250   .8501487   .8091249   .6227213    -999.25    -999.25    -999.25    -999.25    -999.25    -999.25    -999.25
  846.2772   845.9723   105.1719   17.29688   46.53125   10.71875   .9068668   .8400561   .9659830    -999.25    -999.25    -999.25    -999.25    -999.25    -999.25    -999.25
