~Version Information
VERS.                     2.0: CWLS log ASCII Standard Version 2.00
WRAP.                      NO: One line per depth step
~Well Information Block
#MNEM.UNIT                 Value                       Information
#------------              -----                       -----------
STRT.M                     47.2440                    :START
STOP.M                   2609.8500                    :STOP
STEP.M                       .1524                    :STEP
NULL.                     -999.25                     :NULL VALUE
WELL.         NORTH HERALD 1                          :Well Name
FLD .         NORTH HERALD                            :Field
PROV.                                                 :Province
LOC .                                                 :Field Location
PD  .         MSL                                     :Permanent Datum
UWI .                                                 :Unique Well ID
ELZ .M               .00                              :Elevation Log Zero
OS  .                                                 :Services
SRVC.                                                 :Service company
DATE.                                                 :Date
~Curve Information
#MNEM   .UNIT             API CODE Curve Description
#------------             -------- -----------------
DEPT    .M                        :   1  Depth
DEP     .M                        :   2  Measured Depth
FDTU    .US/F                     :   3  Delta T
ACAL    .CM                       :   4  Caliper Log
SGRC    .GAPI                     :   5  Gamma-Ray Log
SP      .MV                       :   6  Spontaneous Potential Log
LLS     .OHMM                     :   7  Shallow Laterolog
SEDP    .OHMM                     :   8  Laterolog Deep Resistivity
MSFL    .OHMM                     :   9  Micro Spherically Focused Log
SBDC    .G/C3                     :  10  Compensated Formation Density Log
FSTP    .PU                       :  11  Neutron Log Porosity
DRHO    .G/C3                     :  12  Density Log Correction
PEF     .                         :  13  Photoelectric Factor
POTA    .PU                       :  14  Potassium Concentration
URAN    .PPM                      :  15  Uranium
THOR    .PPM                      :  16  Thorium
~Parameter Information
#MNEM.UNIT       Value           Description
#------------    -----           -----------
BLI .M           2608.94        :Bottom log interval
TLI .M             47.09        :Top log interval
~Other Information
~A
# ...
  699.2112   698.9063   140.1356   16.70313   50.21875   8.375000   .7343097   .6722550   1.248047    -999.25    -999.25    -999.25    -999.25    -999.25    -999.25    -999.25
  699.3636   699.0587   139.4294   16.70313   50.56250   8.656250   .7222672   .6491938   .9980469    -999.25    -999.25    -999.25    -999.25    -999.25    -999.25    -999.25
  699.5160   699.2111   141.8418   16.70313   50.78125   8.375000   .7253690   .6476517   1.201822    -999.25    -999.25    -999.25    -999.25    -999.25    -999.25    -999.25
  699.6684   699.3635   142.0166   16.67188   51.50000   8.000000   .7131424   .6447635   1.276692    -999.25    -999.25    -999.25    -999.25    -999.25    -999.25    -999.25
  699.8208   699.5159   141.5820   16.70313   54.75000   8.468750   .7162056   .6406775   1.254231    -999.25    -999.25    -999.25    -999.25    -999.25    -999.25    -999.25
  699.9732   699.6683   141.3993   16.70313   52.84375   8.125000   .7042236   .6339736   1.245442    -999.25    -999.25    -999.25    -999.25    -999.25    -999.25    -999.25
  700.1256   699.8207   141.4719   16.67188   52.43750   8.000000   .7222452   .6271062   1.196939    -999.25    -999.25    -999.25    -999.25    -999.25    -999.25    -999.25
  700.2780   699.9731   141.5000   16.62500   48.96875   8.531250   .7219553   .6333041   1.209310    -999.25    -999.25    -999.25    -999.25    -999.25    -999.25    -999.25
  700.4304   700.1255   141.8574   16.65625   50.12500   9.281250   .7019467   .6331673   1.235025    -999.25    -999.25    -999.25    -999.25    -999.25    -999.25    -999.25
  700.5828   700.2778   141.6577   16.65625   53.90625   9.406250   .7011552   .6278696   1.248047    -999.25    -999.25    -999.25    -999.25    -999.25    -999.25    -999.25
  700.7352   700.4303   141.4182   16.67188   56.15625   9.406250   .7022276   .6308656   1.226888    -999.25    -999.25    -999.25    -999.25    -999.25    -999.25    -999.25
  700.8876   700.5826   141.6090   16.67188   55.65625   8.625000   .6963997   .6217752   1.217122    -999.25    -999.25    -999.25    -999.25    -999.25    -999.25    -999.25
  701.0400   700.7351   141.9727   16.67188   54.00000   8.656250   .6860738   .6360488   1.198893    -999.25    -999.25    -999.25    -999.25    -999.25    -999.25    -999.25
  701.1924   700.8875   142.3363   16.70313   53.68750   9.250000   .6831102   .6219563   1.201172    -999.25    -999.25    -999.25    -999.25    -999.25    -999.25    -999.25
  701.3448   701.0399   142.6333   16.70313   55.46875   9.500000   .6906834   .6239944   1.149739    -999.25    -999.25    -999.25    -999.25    -999.25    -999.25    -999.25
  701.4972   701.1923   142.2471   16.65625   58.00000   8.875000   .6747613   .6194758   1.129231    -999.25    -999.25    -999.25    -999.25    -999.25    -999.25    -999.25
  701.6496   701.3447   141.6318   16.65625   58.06250   9.500000   .7048259   .6183882   1.150064    -999.25    -999.25    -999.25    -999.25    -999.25    -999.25    -999.25
  701.8020   701.4971   141.1682   16.64063   58.15625   8.906250   .7020106   .6272368   1.157227    -999.25    -999.25    -999.25    -999.25    -999.25    -999.25    -999.25
  701.9544   701.6495   139.5137   16.64063   53.75000   9.031250   .7167568   .6548524   1.207356    -999.25    -999.25    -999.25    -999.25    -999.25    -999.25    -999.25
  702.1068   701.8019   138.9912   16.53125   56.62500   8.437500   .7191973   .6420584   1.175130    -999.25    -999.25    -999.25    -999.25    -999.25    -999.25    -999.25
  702.2592   701.9543   141.2717   16.62500   51.75000   9.781250   .7217188   .6367397   1.010579    -999.25    -999.25    -999.25    -999.25    -999.25    -999.25    -999.25
  702.4116   702.1067   141.5234   16.65625   55.09375   9.125000   .7229137   .6442695   .9886065    -999.25    -999.25    -999.25    -999.25    -999.25    -999.25    -999.25
  702.5640   702.2590   141.9854   16.57813   55.53125   9.625000   .7314777   .6455002   1.041992    -999.25    -999.25    -999.25    -999.25    -999.25    -999.25    -999.25
  702.7164   702.4115   141.4160   16.53125   59.31250   8.593750   .7225919   .6517658   1.022135    -999.25    -999.25    -999.25    -999.25    -999.25    -999.25    -999.25
  702.8688   702.5638   137.1611   16.53125   60.18750   8.375000   .7428713   .6622267   1.115885    -999.25    -999.25    -999.25    -999.25    -999.25    -999.25    -999.25
  703.0212   702.7163   136.0797   16.56250   61.31250   7.968750   .7642574   .6802197   1.253255    -999.25    -999.25    -999.25    -999.25    -999.25    -999.25    -999.25
  703.1736   702.8687   135.4111   16.53125   60.71875   8.468750   .7735252   .6799841   1.135742    -999.25    -999.25    -999.25    -999.25    -999.25    -999.25    -999.25
  703.3260   703.0211   134.5109   16.57813   58.28125   8.343750   .7899623   .6804471   1.039713    -999.25    -999.25    -999.25    -999.25    -999.25    -999.25    -999.25
  703.4784   703.1735   134.2969   16.65625   57.06250   8.843750   .8012619   .6929502   1.085286    -999.25    -999.25    -999.25    -999.25    -999.25    -999.25    -999.25
  703.6308   703.3259   133.7266   16.70313   55.84375   8.468750   .8093929   .6949325   1.154947    -999.25    -999.25    -999.25    -999.25    -999.25    -999.25    -999.25
  703.7832   703.4783   133.7627   16.71875   57.53125   9.625000   .8097725   .7136345   1.225260    -999.25    -999.25    -999.25    -999.25    -999.25    -999.25    -999.25
  703.9356   703.6307   133.2156   16.71875   54.87500   8.968750   .8237209   .7043896   1.252604    -999.25    -999.25    -999.25    -999.25    -999.25    -999.25    -999.25
  704.0880   703.7831   134.0093   16.75000   54.43750   8.625000   .8063569   .6943092   1.262695    -999.25    -999.25    -999.25    -999.25    -999.25    -999.25    -999.25
  704.2404   703.9355   135.2609   16.71875   54.75000   9.468750   .7775226   .6553020   1.261719    -999.25    -999.25    -999.25    -999.25    -999.25    -999.25    -999.25
  704.3928   704.0879   134.5039   16.64063   53.90625   9.593750   .7582126   .6474557   1.247721    -999.25    -999.25    -999.25    -999.25    -999.25    -999.25    -999.25
  704.5452   704.2402   125.5000   16.62500   54.28125   8.812500   .7756786   .6679606   1.209635    -999.25    -999.25    -999.25    -999.25    -999.25    -999.25    -999.25
  704.6976   704.3927   106.4531   16.65625   46.53125   9.062500   .8883080   .7778788   1.200521    -999.25    -999.25    -999.25    -999.25    -999.25    -999.25    -999.25
  704.8500   704.5450   95.23914   16.64063   42.78125   9.062500   1.159709   1.034156   1.147786    -999.25    -999.25    -999.25    -999.25    -999.25    -999.25    -999.25
  705.0024   704.6975   99.48438   16.67188   41.15625   8.437500   1.268363   1.132979   5.093750    -999.25    -999.25    -999.25    -999.25    -999.25    -999.25    -999.25
  705.1548   704.8499   114.0313   16.64063   46.18750   8.312500   1.224002   1.087770   9.880203    -999.25    -999.25    -999.25    -999.25    -999.25    -999.25    -999.25
  705.3072   705.0023   131.0938   16.67188   50.81250   8.562500   1.036306   .8768682   1.687988    -999.25    -999.25    -999.25    -999.25    -999.25    -999.25    -999.25
  705.4596   705.1547   139.4131   16.70313   56.68750   8.531250   .8196826   .6798940   1.078125    -999.25    -999.25    -999.25    -999.25    -999.25    -999.25    -999.25
  705.6120   705.3071   136.4131   16.62500   58.68750   8.562500   .7450328   .6416173   1.000325    -999.25    -999.25    -999.25    -999.25    -999.25    -999.25    -999.25
  705.7644   705.4595   135.9492   16.68750   59.40625   9.187500   .7570634   .6525779   1.117188    -999.25    -999.25    -999.25    -999.25    -999.25    -999.25    -999.25
  705.9168   705.6119   136.7793   16.70313   57.46875   9.250000   .7884412   .6856656   1.199544    -999.25    -999.25    -999.25    -999.25    -999.25    -999.25    -999.25
  706.0692   705.7643   134.5654   16.65625   55.03125   8.875000   .7958279   .7094603   1.217447    -999.25    -999.25    -999.25    -999.25    -999.25    -999.25    -999.25
