~Version Information
VERS.                     2.0: CWLS log ASCII Standard Version 2.00
WRAP.                      NO: One line per depth step
~Well Information Block
#MNEM.UNIT                 Value                       Information
#------------              -----                       -----------
STRT.M                     47.2440                    :START
STOP.M                   2609.8500                    :STOP
STEP.M                       .1524                    :STEP
NULL.                     -999.25                     :NULL VALUE
WELL.         NORTH HERALD 1                          :Well Name
FLD .         NORTH HERALD                            :Field
PROV.                                                 :Province
LOC .                                                 :Field Location
PD  .         MSL                                     :Permanent Datum
UWI .                                                 :Unique Well ID
ELZ .M               .00                              :Elevation Log Zero
OS  .                                                 :Services
SRVC.                                                 :Service company
DATE.                                                 :Date
~Curve Information
#MNEM   .UNIT             API CODE Curve Description
#------------             -------- -----------------
DEPT    .M                        :   1  Depth
DEP     .M                        :   2  Measured Depth
FDTU    .US/F                     :   3  Delta T
ACAL    .CM                       :   4  Caliper Log
SGRC    .GAPI                     :   5  Gamma-Ray Log
SP      .MV                       :   6  Spontaneous Potential Log
LLS     .OHMM                     :   7  Shallow Laterolog
SEDP    .OHMM                     :   8  Laterolog Deep Resistivity
MSFL    .OHMM                     :   9  Micro Spherically Focused Log
SBDC    .G/C3                     :  10  Compensated Formation Density Log
FSTP    .PU                       :  11  Neutron Log Porosity
DRHO    .G/C3                     :  12  Density Log Correction
PEF     .                         :  13  Photoelectric Factor
POTA    .PU                       :  14  Potassium Concentration
URAN    .PPM                      :  15  Uranium
THOR    .PPM                      :  16  Thorium
~Parameter Information
#MNEM.UNIT       Value           Description
#------------    -----           -----------
BLI .M           2608.94        :Bottom log interval
TLI .M             47.09        :Top log interval
~Other Information
~A
# ...
 1428.2928   1427.835   84.43750   12.48828   110.7969   48.52344   1.382588   1.652950   1.007813   2.381836   21.85059   .0731201   2.310547   4.931641  -1.770996   14.18945
 1428.4452   1427.988   84.42188   12.42188   108.5469   48.70313   1.372864   1.635347   1.140625   2.386719   22.75391   .0631104   2.300293   4.907227  -1.574463   13.85156
 1428.5976   1428.140   84.60938   12.40625   109.8594   48.84375   1.366456   1.593220   1.059570   2.374023   23.85254   .0373535   2.298828   4.895020  -1.544678   13.98242
 1428.7500   1428.293   85.06250   12.44141   113.7188   48.82813   1.398810   1.624470   1.051107   2.359375   23.82813   .0214844   2.321289   4.858398  -1.452148   14.21289
 1428.9024   1428.445   85.87500   12.46094   117.1250   48.67188   1.288191   1.516913   1.060221   2.357422   22.64404   .0283203   2.331055   4.797363  -1.315186   14.34766
 1429.0548   1428.597   86.07813   12.47070   118.7344   48.39844   1.156568   1.324576   1.251302   2.363281   21.70410   .0440674   2.354980   4.724121  -1.188965   14.39453
 1429.2072   1428.750   85.78125   12.48047   118.7188   48.05469   1.162495   1.322344   1.335286   2.370117   21.74072   .0513916   2.478516   4.687500  -1.018188   14.20508
 1429.3596   1428.902   85.84375   12.47070   118.6563   47.66406   1.183544   1.328426   .9143879   2.373535   22.85156   .0404053   2.622070   4.699707  -.9060059   14.03711
 1429.5120   1429.055   85.04688   12.46094   119.3281   47.15625   1.212586   1.365132   1.010742   2.377930   24.31641   .0192871   2.627930   4.724121  -.9187012   14.02930
 1429.6644   1429.207   82.78125   12.46094   121.2656   46.74219   1.454384   1.689956   1.481445   2.388672   24.65820   .0043945   2.553711   4.760742  -.9523926   13.94727
 1429.8168   1429.359   81.26563   12.48242   123.1875   46.60938   1.624244   1.947409   1.153646   2.409180   22.79053   .0063477   2.553223   4.821777  -1.031860   13.95117
 1429.9692   1429.512   81.06250   12.50391   123.7969   46.57813   1.631053   2.006599   1.591471   2.441895   20.03174   .0322266   2.592285   4.833984  -1.124512   14.11914
 1430.1216   1429.664   81.40625   12.48242   123.6406   46.57813   1.622734   1.974851   2.150391   2.468262   19.32373   .0672607   2.526855   4.785156  -1.192139   14.30273
 1430.2740   1429.817   82.75000   12.43945   122.6875   46.74219   1.541893   1.795084   1.592773   2.464844   21.14258   .0826416   2.389648   4.760742  -1.219238   14.38867
 1430.4264   1429.969   84.00000   12.39453   121.9063   47.03906   1.397543   1.592912   1.490234   2.434082   23.26660   .0651855   2.322754   4.748535  -1.076172   14.24023
 1430.5788   1430.122   83.90625   12.36914   120.7031   47.21875   1.303872   1.499851   1.162109   2.398438   23.97461   .0316162   2.321777   4.711914  -.8863525   14.07422
 1430.7312   1430.274   83.67188   12.36719   117.7656   47.07813   1.242203   1.419551   1.131185   2.373535   23.30322   .0093994   2.299316   4.699707  -.9482422   14.26563
 1430.8836   1430.426   84.23438   12.34961   114.9219   46.94531   1.241287   1.370609   1.124674   2.355469   22.22900   .0051270   2.235352   4.736328  -1.244263   14.76172
 1431.0360   1430.579   85.18750   12.30859   114.1094   47.09375   1.220126   1.377053   .9827473   2.341309   21.65527   .0122070   2.200195   4.724121  -1.403076   15.22070
 1431.1884   1430.731   85.93750   12.27930   116.8438   47.34375   1.198733   1.384420   1.091309   2.337402   21.78955   .0238037   2.222656   4.663086  -1.373291   15.47656
 1431.3408   1430.884   86.14063   12.29102   121.0469   47.65625   1.188440   1.389908   1.017252   2.341797   22.26563   .0278320   2.271973   4.626465  -1.400879   15.69922
 1431.4932   1431.036   85.89063   12.33203   124.2344   47.91406   1.213848   1.426565   2.049805   2.348145   22.77832   .0192871   2.333496   4.602051  -1.454834   15.93945
 1431.6456   1431.188   85.37500   12.36133   126.7188   47.89844   1.317087   1.498582   1.632487   2.357422   23.18115   .0090332   2.377441   4.614258  -1.570801   16.18164
 1431.7980   1431.341   84.65625   12.35156   128.2500   47.68750   1.417525   1.631907   1.170898   2.371582   23.25439   .0083008   2.373047   4.650879  -1.770752   16.38281
 1431.9504   1431.493   83.81250   12.31445   129.5469   47.57813   1.463259   1.714719   1.232747   2.392578   22.76611   .0214844   2.312012   4.663086  -1.825684   16.25195
 1432.1028   1431.646   83.12500   12.30078   131.6563   47.70313   1.565094   1.892722   1.801107   2.417480   22.03369   .0413818   2.284668   4.675293  -1.713135   15.76758
 1432.2552   1431.798   82.87500   12.33008   133.7188   47.82031   1.581095   1.930747   1.845703   2.431152   21.67969   .0494385   2.318359   4.699707  -1.629395   15.35938
 1432.4076   1431.950   83.23438   12.35938   131.7656   47.76563   1.603239   1.927264   1.817708   2.417969   21.65527   .0352783   2.287109   4.736328  -1.655518   15.21680
 1432.5600   1432.103   83.98438   12.36719   126.0625   47.51563   1.482633   1.777761   1.455078   2.361816   20.88623   .0013428   2.071289   4.809570  -1.988037   15.54102
 1432.7124   1432.255   84.62500   12.34961   120.6563   47.11719   1.321658   1.558777   1.518229   2.354034   20.52002  -.0017471   2.101501   4.786682  -2.030396   15.66553
 1432.8648   1432.407   85.03125   12.30859   117.0938   46.91406   1.280858   1.496758   1.164713   2.359924   20.37811  -.0018463   2.199707   4.742432  -1.845215   15.41919
 1433.0172   1432.560   85.03125   12.27930   114.5156   46.95313   1.258455   1.458360   .9689127   2.369171   20.39108  -.0029221   2.305054   4.726410  -1.701294   15.11621
 1433.1696   1432.712   84.71875   12.27344   112.8281   47.00781   1.281275   1.507116   1.198893   2.375122   20.68176  -.0051880   2.381836   4.760742  -1.844238   15.18213
 1433.3220   1432.865   84.60938   12.27344   113.7188   47.07813   1.344028   1.626377   1.564779   2.374451   21.26312  -.0077057   2.398712   4.806519  -2.105225   15.45972
 1433.4744   1433.017   85.01563   12.27344   116.5000   47.01563   1.397947   1.684243   1.525065   2.367432   21.61407  -.0093842   2.356140   4.837036  -2.262024   15.62012
 1433.6268   1433.169   85.78125   12.27344   119.5313   46.78906   1.303759   1.593638   1.343750   2.359650   21.41037  -.0092010   2.289307   4.839325  -2.276947   15.64136
 1433.7792   1433.322   86.48438   12.27344   120.7969   46.58594   1.266864   1.474462   1.303711   2.356934   20.89844  -.0075073   2.241699   4.797363  -2.182251   15.63086
 1433.9316   1433.474   86.73438   12.27344   120.2344   46.50781   1.237343   1.461704   1.018555   2.360199   20.66422  -.0057068   2.231476   4.728699  -2.038696   15.62634
 1434.0840   1433.627   86.32813   12.27344   120.4063   46.51563   1.232439   1.474698   1.253255   2.363403   21.04645  -.0052032   2.251160   4.673767  -1.939728   15.64282
 1434.2364   1433.779   86.01563   12.27344   121.7813   46.60938   1.292394   1.553302   1.242513   2.360199   21.84753  -.0053558   2.299683   4.658508  -1.945435   15.68555
 1434.3888   1433.931   85.92188   12.27344   121.6250   46.85938   1.233745   1.475708   1.270833   2.354492   22.59521  -.0032654   2.387329   4.693604  -2.057495   15.72559
 1434.5412   1434.084   85.43750   12.27344   118.9375   47.13281   1.209528   1.479748   1.277669   2.356964   22.86072   .0009232   2.485474   4.757690  -2.248169   15.79370
 1434.6936   1434.236   84.79688   12.27344   116.7813   47.56250   1.238213   1.486184   1.042643   2.369568   22.48840   .0023193   2.509705   4.791260  -2.372925   15.80078
 1434.8460   1434.389   84.14063   12.27344   117.1875   48.19531   1.245183   1.478713   1.138997   2.382904   21.78192  -.0015564   2.413452   4.740143  -2.182129   15.44385
 1434.9984   1434.541   84.07813   12.27344   118.4219   48.67188   1.220821   1.481558   1.137044   2.384277   21.11816  -.0084229   2.257324   4.614258  -1.785889   15.01367
 1435.1508   1434.693   84.92188   12.27344   117.8750   49.00781   1.215740   1.436554   1.217773   2.378174   21.05103  -.0105591   2.208496   4.577637  -1.692627   14.99609
