~Version Information
VERS.                     2.0: CWLS log ASCII Standard Version 2.00
WRAP.                      NO: One line per depth step
~Well Information Block
#MNEM.UNIT                 Value                       Information
#------------              -----                       -----------
STRT.M                     47.2440                    :START
STOP.M                   2609.8500                    :STOP
STEP.M                       .1524                    :STEP
NULL.                     -999.25                     :NULL VALUE
WELL.         NORTH HERALD 1                          :Well Name
FLD .         NORTH HERALD                            :Field
PROV.                                                 :Province
LOC .                                                 :Field Location
PD  .         MSL                                     :Permanent Datum
UWI .                                                 :Unique Well ID
ELZ .M               .00                              :Elevation Log Zero
OS  .                                                 :Services
SRVC.                                                 :Service company
DATE.                                                 :Date
~Curve Information
#MNEM   .UNIT             API CODE Curve Description
#------------             -------- -----------------
DEPT    .M                        :   1  Depth
DEP     .M                        :   2  Measured Depth
FDTU    .US/F                     :   3  Delta T
ACAL    .CM                       :   4  Caliper Log
SGRC    .GAPI                     :   5  Gamma-Ray Log
SP      .MV                       :   6  Spontaneous Potential Log
LLS     .OHMM                     :   7  Shallow Laterolog
SEDP    .OHMM                     :   8  Laterolog Deep Resistivity
MSFL    .OHMM                     :   9  Micro Spherically Focused Log
SBDC    .G/C3                     :  10  Compensated Formation Density Log
FSTP    .PU                       :  11  Neutron Log Porosity
DRHO    .G/C3                     :  12  Density Log Correction
PEF     .                         :  13  Photoelectric Factor
POTA    .PU                       :  14  Potassium Concentration
URAN    .PPM                      :  15  Uranium
THOR    .PPM                      :  16  Thorium
~Parameter Information
#MNEM.UNIT       Value           Description
#------------    -----           -----------
BLI .M           2608.94        :Bottom log interval
TLI .M             47.09        :Top log interval
~Other Information
~A
# ...
 2444.8008   2443.886   82.57813   9.744141   96.53125   70.93750   6.697306   7.442054   1.562500   2.469238   19.12842   .0012207   3.425293   2.941895   1.475586   9.410156
 2444.9532   2444.039   80.98438   9.744141   96.34375   70.68750   6.675426   7.528048   3.309245   2.500977   18.83545   .0003662   3.583496   2.990723   .9259033   10.81250
 2445.1056   2444.191   79.23438   9.750000   97.76563   70.31250   6.861361   7.763507   8.485676   2.546387   18.85986   .0021973   3.741211   2.990723  -.0257568   13.36133
 2445.2580   2444.343   77.42188   9.755859   99.79688   69.68750   7.343092   8.236458   8.257813   2.596191   19.12842   .0028076   3.847168   2.978516  -.8797607   16.11523
 2445.4104   2444.496   76.06250   9.753906   103.4844   69.50000   7.576066   8.447088   7.746094   2.633301   19.09180   .0006104   3.922852   3.015137  -.7500000   16.66211
 2445.5628   2444.648   75.46875   9.746094   107.4063   69.56250   7.558927   8.535877   9.585938   2.642090   18.68896  -.0021973   3.934570   3.015137   .4645996   14.78516
 2445.7152   2444.801   78.51563   9.742188   108.3750   69.68750   7.584782   8.724257   10.87760   2.618164   18.56689  -.0047607   3.714355   2.905273   1.667114   12.89648
 2445.8676   2444.953   82.04688   9.744141   106.1250   69.50000   7.330404   8.308582   10.47135   2.575684   19.05518  -.0081787   3.374023   2.746582   1.830200   12.50586
 2446.0200   2445.105   83.72852   9.748047   102.5938   69.37500   6.926758   7.867878   9.385416   2.546875   19.40918  -.0128174   3.306641   2.770996   1.078979   13.00195
 2446.1724   2445.258   82.98242   9.748047   100.8906   68.93750   6.881128   7.681046   7.140625   2.567871   18.92090  -.0172119   4.059082   2.783203   .7999268   12.86914
 2446.3248   2445.410   80.48828   9.734375   100.8750   68.50000   7.116047   7.940846   7.740885   2.645996   18.43262  -.0202637   5.051270   2.575684   1.470337   11.73438
 2446.4772   2445.563   77.44141   9.708984   101.0469   67.25000   7.412278   8.359877   9.627604   2.726074   18.78662  -.0211182   4.893066   2.502441   1.855713   10.87500
 2446.6296   2445.715   76.04395   9.691406   101.4688   65.43750   7.935049   8.950413   11.27083   2.724121   19.44580  -.0181885   3.939941   2.758789   .9302979   11.88086
 2446.7820   2445.867   77.37500   9.699219   101.1875   64.12500   7.706045   8.574854   11.35938   2.633301   19.53125  -.0117188   3.293457   2.954102  -.3165283   13.70898
 2446.9344   2446.020   79.93359   9.728516   100.5313   63.00000   6.755610   7.501087   9.822916   2.531738   18.99414  -.0043945   3.137207   2.941895  -.8321533   14.74609
 2447.0868   2446.172   81.84570   9.755859   100.5313   63.12500   6.471438   7.076351   7.662760   2.480469   18.62793   .0002441   3.217285   3.088379  -1.547241   15.87695
 2447.2392   2446.325   82.46045   9.769531   100.0938   63.93750   6.295167   6.968369   3.493489   2.479492   18.67676   .0004883   3.291992   3.186035  -1.822632   16.05273
 2447.3916   2446.477   81.65430   9.769531   99.82813   65.56250   6.344459   7.031611   3.718099   2.499512   18.64014  -.0028076   3.290527   2.929688  -.7763672   14.49023
 2447.5440   2446.629   79.73047   9.763672   100.2813   66.50000   6.546307   7.238176   7.593750   2.519531   18.11523  -.0081787   3.399414   2.734375  -.3970947   14.31445
 2447.6964   2446.782   77.97266   9.765625   100.8750   66.31250   6.913400   7.592198   9.697916   2.544434   17.45605  -.0126953   3.752930   2.844238  -1.143066   15.15820
 2447.8488   2446.934   77.07520   9.771484   100.2656   65.87500   7.248571   8.001909   9.518229   2.587891   17.62695  -.0142822   4.074219   3.051758  -1.432739   14.05273
 2448.0012   2447.086   76.53711   9.771484   99.68750   66.62500   7.635398   8.380329   9.145832   2.637695   18.68896  -.0139160   4.010254   3.210449  -.7855225   11.81445
 2448.1536   2447.239   75.83984   9.769531   101.8125   68.12500   7.774332   8.568148   10.90364   2.663574   19.42139  -.0120850   3.680664   3.405762  -.0764160   10.95508
 2448.3060   2447.392   75.28125   9.763672   107.7969   69.31250   7.665203   8.565340   11.16406   2.655762   18.90869  -.0107422   3.496582   3.540039   .1696777   12.62500
 2448.4584   2447.544   75.32813   9.751953   116.5156   69.25000   7.397952   8.254457   10.83333   2.630371   18.01758  -.0120850   3.466309   3.540039   .6312256   14.22070
 2448.6108   2447.696   75.96875   9.759766   121.8125   68.50000   7.157506   8.026146   10.31250   2.602051   18.11523  -.0146484   3.371582   3.625488   1.168335   13.45508
 2448.7632   2447.849   77.21875   9.789063   119.6875   68.37500   6.988217   7.790664   10.15885   2.570313   18.87207  -.0158691   3.250488   3.771973   1.024414   12.21094
 2448.9156   2448.001   78.31250   9.816406   113.2500   67.93750   6.881167   7.642249   8.756510   2.537598   19.18945  -.0155029   3.207520   3.833008   .2911377   12.31055
 2449.0680   2448.153   78.40625   9.830078   109.6406   67.68750   7.010118   7.752657   7.134114   2.515625   18.83545  -.0148926   3.232910   3.759766  -.5205078   13.53711
 2449.2204   2448.306   77.60938   9.824219   111.2656   67.56250   7.204634   7.967206   7.276041   2.500488   18.59131  -.0134277   3.420410   3.466797  -.3101807   13.88672
 2449.3728   2448.458   76.96875   9.812500   112.8594   68.00000   7.307350   8.095331   8.867188   2.482910   18.78662  -.0021973   4.067871   2.990723   1.155762   12.43750
 2449.5252   2448.611   77.48438   9.818359   108.8594   69.12500   7.430946   8.119497   9.955729   2.479980   18.67676   .0311279   5.275879   2.709961   1.697510   11.71094
 2449.6776   2448.763   78.54688   9.841797   99.81250   70.43750   7.220251   7.894963   8.055988   2.494629   18.04199   .0705566   6.476563   2.685547   .7885742   12.50195
 2449.8300   2448.916   79.04688   9.855469   90.56250   71.00000   7.055030   7.718675   2.030924   2.503906   17.52930   .0925293   6.830078   2.746582   .1726074   12.21484
 2449.9824   2449.068   79.03125   9.855469   86.12500   70.75000   6.742360   7.383458   1.478516   2.500488   17.38281   .1057129   6.439453   2.941895  -.5102539   12.08203
 2450.1348   2449.220   78.85938   9.853516   87.62500   69.75000   6.804975   7.391612   .9212239   2.497070   17.38281   .1309814   6.088867   3.088379  -1.753174   14.24023
 2450.2872   2449.373   79.45313   9.847656   90.50000   68.87500   6.902956   7.551668   1.083170   2.500488   17.46826   .1654053   6.164063   3.137207  -3.210449   17.52930
 2450.4396   2449.525   80.96875   9.847656   92.79688   68.56250   6.808661   7.433020   2.597981   2.492676   17.70020   .1837158   6.995117   3.356934  -4.148926   18.72070
 2450.5920   2449.677   82.23438   9.851563   96.01563   68.68750   6.789295   7.455293   3.269531   2.469727   18.11523   .1866455   8.580078   3.564453  -3.167725   15.75000
 2450.7444   2449.830   83.28125   9.855469   99.82813   68.18750   6.891968   7.504865   1.614258   2.449219   18.82324   .1860352   9.982422   3.405762  -1.619385   13.57617
 2450.8968   2449.982   83.46875   9.867188   100.6875   67.00000   6.586458   7.202815   1.241862   2.437012   20.00732   .1657715   9.582031   3.210449  -1.579346   14.99609
 2451.0492   2450.135   81.21875   9.888672   96.18750   66.37500   6.584445   7.160966   1.526693   2.439941   21.00830   .1131592   7.235352   3.344727  -3.109131   17.48438
 2451.2016   2450.287   77.53125   9.910156   91.23438   66.93750   7.259605   7.944138   1.816406   2.476563   20.71533   .0490723   5.067383   3.393555  -3.310547   17.29492
 2451.3540   2450.439   74.23438   9.910156   91.48438   67.62500   7.723816   8.476814   2.585286   2.542480   19.43359   .0068359   4.069336   3.161621  -.4072266   12.73242
 2451.5064   2450.592   72.07813   9.898438   96.98438   67.87500   8.030910   8.869854   7.208333   2.598145   18.46924  -.0063477   3.676270   3.222656   1.278687   9.933594
 2451.6588   2450.744   72.21875   9.892578   103.5313   67.25000   8.610241   9.545326   13.19792   2.611328   18.37158  -.0084229   3.516602   3.515625   .1821289   11.68164
