~Version Information
VERS.                     2.0: CWLS log ASCII Standard Version 2.00
WRAP.                      NO: One line per depth step
~Well Information Block
#MNEM.UNIT                 Value                       Information
#------------              -----                       -----------
STRT.M                     47.2440                    :START
STOP.M                   2609.8500                    :STOP
STEP.M                       .1524                    :STEP
NULL.                     -999.25                     :NULL VALUE
WELL.         NORTH HERALD 1                          :Well Name
FLD .         NORTH HERALD                            :Field
PROV.                                                 :Province
LOC .                                                 :Field Location
PD  .         MSL                                     :Permanent Datum
UWI .                                                 :Unique Well ID
ELZ .M               .00                              :Elevation Log Zero
OS  .                                                 :Services
SRVC.                                                 :Service company
DATE.                                                 :Date
~Curve Information
#MNEM   .UNIT             API CODE Curve Description
#------------             -------- -----------------
DEPT    .M                        :   1  Depth
DEP     .M                        :   2  Measured Depth
FDTU    .US/F                     :   3  Delta T
ACAL    .CM                       :   4  Caliper Log
SGRC    .GAPI                     :   5  Gamma-Ray Log
SP      .MV                       :   6  Spontaneous Potential Log
LLS     .OHMM                     :   7  Shallow Laterolog
SEDP    .OHMM                     :   8  Laterolog Deep Resistivity
MSFL    .OHMM                     :   9  Micro Spherically Focused Log
SBDC    .G/C3                     :  10  Compensated Formation Density Log
FSTP    .PU                       :  11  Neutron Log Porosity
DRHO    .G/C3                     :  12  Density Log Correction
PEF     .                         :  13  Photoelectric Factor
POTA    .PU                       :  14  Potassium Concentration
URAN    .PPM                      :  15  Uranium
THOR    .PPM                      :  16  Thorium
~Parameter Information
#MNEM.UNIT       Value           Description
#------------    -----           -----------
BLI .M           2608.94        :Bottom log interval
TLI .M             47.09        :Top log interval
~Other Information
~A
# ...
 2157.3744   2156.612   74.42188   13.40430   122.1094   42.36328   6.463326   6.361523   8.106766   2.560547   17.63916  -.0019531   2.915527   4.418945  -.8483887   16.36914
 2157.5268   2156.765   73.06250   13.37500   118.3438   43.07031   6.625313   6.467308   7.559895   2.591797   16.46729   .0003662   3.089844   4.504395  -1.176147   16.71875
 2157.6792   2156.917   72.31250   13.35352   114.4375   43.37207   6.913952   6.769245   6.726563   2.611816   15.60059   .0050049   3.046875   4.626465  -1.417969   16.88672
 2157.8316   2157.069   72.26563   13.33984   111.6250   43.10547   7.028629   6.879589   10.62760   2.604492   15.68604   .0081787   2.909180   4.626465  -1.327393   17.00781
 2157.9840   2157.222   73.17188   13.34570   114.3750   42.70703   7.241245   7.084850   11.30469   2.581055   16.55273   .0062256   2.814941   4.565430  -1.214355   17.40625
 2158.1364   2157.374   74.26563   13.34570   122.8594   42.43359   7.188354   7.137314   9.640625   2.561035   17.37061   .0001221   2.764648   4.516602  -1.171631   17.73828
 2158.2888   2157.527   74.81250   13.34766   130.0625   42.31738   6.836166   6.746632   9.893227   2.550293   17.60254  -.0034180   2.689453   4.504395  -1.089111   17.63281
 2158.4412   2157.679   75.12500   13.36133   131.4844   42.57813   6.825886   6.669647   10.27604   2.543945   17.50488  -.0004883   2.617676   4.492188  -1.042969   17.55078
 2158.5936   2157.832   75.37500   13.37305   128.2344   43.23828   6.824947   6.655106   10.55989   2.539063   17.49268   .0051270   2.582520   4.406738  -.9780273   17.75000
 2158.7460   2157.984   75.71875   13.40039   125.0781   43.98438   6.653378   6.522518   9.789063   2.532715   17.52930   .0065918   2.579102   4.345703  -.9614258   17.97266
 2158.8984   2158.136   76.07813   13.42969   124.3750   44.63574   6.552238   6.370007   8.817703   2.521973   17.48047   .0019531   2.591309   4.382324  -1.252197   18.43750
 2159.0508   2158.289   76.14063   13.41602   125.7031   45.06641   6.346794   6.159397   8.322914   2.511230   17.48047  -.0025635   2.596191   4.431152  -1.606934   19.04297
 2159.2032   2158.441   76.18750   13.38086   127.1719   45.15234   6.239029   6.030563   8.960938   2.507324   17.84668  -.0031738   2.609375   4.443359  -1.641357   19.20703
 2159.3556   2158.593   76.42188   13.36719   127.4531   45.09082   6.315151   6.180210   8.557289   2.512207   18.40820  -.0023193   2.646973   4.516602  -1.684570   19.24219
 2159.5080   2158.746   76.60938   13.36719   126.7813   44.97656   6.539490   6.349689   9.505203   2.522461   18.61572  -.0032959   2.716309   4.663086  -2.003418   19.60156
 2159.6604   2158.898   76.71875   13.36719   127.1563   44.82324   6.759506   6.599491   9.947914   2.534668   18.70117  -.0057373   2.785645   4.772949  -2.404785   20.23047
 2159.8128   2159.051   76.93750   13.36719   130.5000   44.69141   7.088146   6.943451   10.38802   2.547363   19.23828  -.0061035   2.822754   4.821777  -2.602051   20.62500
 2159.9652   2159.203   77.14063   13.36719   135.4375   44.58984   7.340240   7.310230   10.92188   2.557129   20.20264  -.0031738   2.812988   4.821777  -2.491699   20.33203
 2160.1176   2159.355   77.07813   13.36719   140.1563   44.59082   7.629574   7.542473   11.46614   2.556152   20.91064  -.0001221   2.757813   4.748535  -2.276123   19.80078
 2160.2700   2159.508   76.71875   13.36719   141.6563   44.69531   7.712162   7.689838   11.32031   2.542969   20.83740  -.0003662   2.707520   4.577637  -1.843750   19.14063
 2160.4224   2159.660   76.37500   13.36719   138.7188   44.76074   7.686180   7.664291   11.48698   2.525879   20.30029  -.0024414   2.729492   4.370117  -1.309082   18.51563
 2160.5748   2159.813   76.32813   13.36914   133.8125   44.72266   7.436054   7.417645   11.17708   2.514648   19.61670  -.0026855   2.814453   4.199219  -1.030029   18.40234
 2160.7272   2159.965   76.37500   13.38086   130.4375   44.68359   7.042763   7.010296   10.87760   2.513184   19.05518   .0003662   2.869629   4.138184  -1.011963   18.38672
 2160.8796   2160.117   76.28125   13.41016   130.5625   44.76953   6.701080   6.576759   9.518227   2.516113   18.85986   .0030518   2.848633   4.248047  -1.236328   18.23438
 2161.0320   2160.270   75.99316   13.42773   131.3438   44.98926   6.344669   6.286324   8.958328   2.519531   18.68896   .0013428   2.827148   4.357910  -1.323486   17.91406
 2161.1844   2160.422   75.60254   13.40430   128.9688   45.15527   6.280983   6.133587   8.674477   2.525391   18.13965  -.0021973   2.841309   4.370117  -1.239258   17.65234
 2161.3368   2160.575   75.49292   13.37695   123.9219   45.21875   6.305115   6.131401   8.406250   2.534866   17.55981  -.0018420   2.824265   4.417465  -1.332764   17.78113
 2161.4892   2160.727   75.53931   13.37109   120.6094   45.34473   6.340572   6.240669   8.562500   2.545242   17.66757   .0036774   2.763611   4.487801  -1.504639   18.05298
 2161.6416   2160.879   75.24170   13.36914   120.6719   45.60547   6.572193   6.498047   9.242188   2.551224   18.46390   .0095749   2.685669   4.547691  -1.655273   18.21948
 2161.7940   2161.032   74.93164   13.36719   121.8125   45.88086   6.862267   6.797176   9.520828   2.550041   19.12155   .0114193   2.640869   4.574680  -1.608459   18.15881
 2161.9464   2161.184   75.03516   13.36719   123.4219   45.95801   6.893810   6.884808   10.11719   2.542763   19.31552   .0095253   2.621658   4.525852  -1.461182   18.26111
 2162.0988   2161.336   75.42139   13.36719   125.9844   45.92627   6.854881   6.885288   10.62500   2.532715   19.31595   .0074577   2.579956   4.476643  -1.499268   18.61035
 2162.2512   2161.489   75.89502   13.36719   128.3594   45.95801   6.757881   6.752449   9.864578   2.524223   19.24419   .0072725   2.540894   4.458153  -1.584351   18.82520
 2162.4036   2161.642   76.33643   13.36719   128.3281   45.95752   6.546234   6.494709   9.434891   2.521721   18.99490   .0082493   2.540115   4.418564  -1.540405   18.88696
 2162.5560   2161.794   76.66699   13.36719   125.4063   45.97461   6.259769   6.212784   9.044266   2.526459   18.61000   .0094337   2.576233   4.371212  -1.486145   18.96838
 2162.7084   2161.946   76.83533   13.36719   123.0156   46.05762   6.221283   6.236774   8.742188   2.533424   18.44254   .0092545   2.633118   4.383469  -1.590332   19.19214
 2162.8608   2162.099   76.75171   13.36719   123.7813   46.03125   6.369114   6.376545   9.424477   2.535969   18.59970   .0069160   2.691406   4.427097  -1.657227   19.35547
 2163.0132   2162.251   76.50098   13.36719   126.9375   45.81738   6.536308   6.579971   9.734375   2.531158   18.93768   .0039940   2.741699   4.412270  -1.422852   19.17090
 2163.1656   2162.403   76.32385   13.36719   129.1250   45.58301   6.911720   6.959614   9.898438   2.522095   19.33136   .0026336   2.786804   4.350090  -1.097656   18.82959
 2163.3180   2162.556   76.23291   13.36719   127.4688   45.46777   7.217609   7.308086   10.09375   2.514687   19.64951   .0032158   2.812286   4.265022  -.9068604   18.63733
 2163.4704   2162.708   76.08911   13.37891   124.5938   45.50000   7.185410   7.269737   10.52083   2.512207   19.67659   .0044498   2.807220   4.170322  -.7749023   18.41211
 2163.6228   2162.861   75.84229   13.41211   123.3281   45.69727   7.036930   7.135296   10.38802   2.514977   19.24591   .0053825   2.783478   4.163742  -.6697998   17.72070
 2163.7752   2163.013   75.54590   13.44336   122.4219   45.90625   6.839748   6.907612   9.794266   2.521599   18.43567   .0063877   2.739258   4.276085  -.6217957   16.65430
 2163.9276   2163.166   75.35657   13.43750   119.6563   46.01514   6.813602   6.820000   9.481766   2.527653   17.52777   .0072465   2.666870   4.391193  -.6799316   16.00879
 2164.0800   2163.318   75.37927   13.40039   117.2969   45.95996   6.559525   6.528355   8.575516   2.526680   16.83426   .0062561   2.585571   4.441498  -.8959961   16.16309
 2164.2324   2163.470   75.61426   13.38867   117.8906   45.65576   6.303749   6.370007   9.929688   2.517075   16.56233   .0029564   2.535141   4.455566  -1.030884   16.39502
