~Version Information
VERS.                     2.0: CWLS log ASCII Standard Version 2.00
WRAP.                      NO: One line per depth step
~Well Information Block
#MNEM.UNIT                 Value                       Information
#------------              -----                       -----------
STRT.M                     47.2440                    :START
STOP.M                   2609.8500                    :STOP
STEP.M                       .1524                    :STEP
NULL.                     -999.25                     :NULL VALUE
WELL.         NORTH HERALD 1                          :Well Name
FLD .         NORTH HERALD                            :Field
PROV.                                                 :Province
LOC .                                                 :Field Location
PD  .         MSL                                     :Permanent Datum
UWI .                                                 :Unique Well ID
ELZ .M               .00                              :Elevation Log Zero
OS  .                                                 :Services
SRVC.                                                 :Service company
DATE.                                                 :Date
~Curve Information
#MNEM   .UNIT             API CODE Curve Description
#------------             -------- -----------------
DEPT    .M                        :   1  Depth
DEP     .M                        :   2  Measured Depth
FDTU    .US/F                     :   3  Delta T
ACAL    .CM                       :   4  Caliper Log
SGRC    .GAPI                     :   5  Gamma-Ray Log
SP      .MV                       :   6  Spontaneous Potential Log
LLS     .OHMM                     :   7  Shallow Laterolog
SEDP    .OHMM                     :   8  Laterolog Deep Resistivity
MSFL    .OHMM                     :   9  Micro Spherically Focused Log
SBDC    .G/C3                     :  10  Compensated Formation Density Log
FSTP    .PU                       :  11  Neutron Log Porosity
DRHO    .G/C3                     :  12  Density Log Correction
PEF     .                         :  13  Photoelectric Factor
POTA    .PU                       :  14  Potassium Concentration
URAN    .PPM                      :  15  Uranium
THOR    .PPM                      :  16  Thorium
~Parameter Information
#MNEM.UNIT       Value           Description
#------------    -----           -----------
BLI .M           2608.94        :Bottom log interval
TLI .M             47.09        :Top log interval
~Other Information
~A
# ...
 1715.7192   1715.109   81.70313   12.17969   74.25000   84.65234   .7023697   .7933846   .8061523   2.345459   19.92188   .0003662   2.184326   4.083252  -1.835205   9.385254
 1715.8716   1715.262   82.03125   12.17969   83.51563   83.94922   .7540641   .8900104   1.158203   2.368256   21.38062   .0027313   2.175110   4.204987  -1.959274   9.702972
 1716.0240   1715.414   82.67871   12.17969   91.60938   84.02344   .9235163   1.072484   1.023600   2.384186   22.13936   .0036707   2.106445   4.235840  -1.997070   9.728241
 1716.1764   1715.567   83.24316   12.17969   95.51563   84.52734   1.019921   1.295645   1.389648   2.383949   22.20917   .0015907   2.059914   4.177094  -2.004028   9.700745
 1716.3288   1715.719   83.40259   12.17969   95.54688   84.83203   1.106261   1.420731   1.168945   2.374054   21.80939  -.0022163   2.098022   4.026604  -1.811523   9.256836
 1716.4812   1715.872   83.26660   12.17969   93.50000   84.79688   1.107903   1.425939   1.530273   2.364723   21.23947  -.0065727   2.187622   3.896236  -1.483154   8.214844
 1716.6336   1716.024   82.86572   12.17969   90.93750   84.59375   1.089523   1.351603   1.253906   2.358803   20.85017  -.0109024   2.264954   3.857422  -1.273438   7.050781
 1716.7860   1716.176   82.33447   12.17969   87.95313   84.55469   1.050938   1.261331   1.094727   2.353546   20.75195  -.0145111   2.304199   3.874159  -1.268433   6.181641
 1716.9384   1716.329   81.53711   12.17969   83.42188   84.75391   .9308243   1.159575   1.024739   2.345909   20.84560  -.0171165   2.302032   3.932571  -1.429199   5.729004
 1717.0908   1716.481   80.52148   12.17969   78.23438   85.08203   .9436636   1.138490   .9140625   2.336037   21.29669  -.0182428   2.258972   4.012108  -1.616333   5.624901
 1717.2432   1716.634   80.08008   12.17969   75.39063   85.42969   .9417334   1.079016   .8416338   2.326645   22.12906  -.0176659   2.199707   4.058098  -1.669495   5.647156
 1717.3956   1716.786   80.47070   12.17969   74.62500   85.58594   .9071717   1.072474   .9523110   2.323746   22.70908  -.0151558   2.178009   4.043816  -1.596802   5.738159
 1717.5480   1716.938   80.89154   12.17969   72.25000   85.40234   .9446650   1.082472   .7254229   2.330688   22.40829  -.0112724   2.221130   4.026531  -1.564697   5.914307
 1717.7004   1717.091   80.90808   12.17969   67.64063   85.09766   .9146380   1.080456   .8318682   2.340279   21.58279  -.0086222   2.297668   4.112434  -1.702881   6.079102
 1717.8528   1717.243   80.66211   12.17969   63.92969   84.91797   .9516482   1.079967   .8894854   2.342213   21.08478  -.0083098   2.351532   4.277229  -1.938965   6.277588
 1718.0052   1717.396   79.66797   12.17969   65.00000   84.77344   .9356980   1.109919   .8964844   2.335365   21.05540  -.0074692   2.340149   4.375099  -2.134277   6.729492
 1718.1576   1717.548   78.24915   12.17969   70.66406   84.62109   .9228392   1.092082   .8551431   2.325661   21.11577  -.0023499   2.259644   4.338074  -2.149902   7.300781
 1718.3100   1717.700   78.21484   12.17969   77.76563   84.51953   .9128690   1.046561   .9280596   2.314987   21.30470   .0060730   2.155029   4.243374  -1.881348   7.409180
 1718.4624   1717.853   83.56250   12.17969   84.09375   84.57422   .9096065   1.098037   .8935547   2.302277   21.87500   .0121841   2.071533   4.194450  -1.489990   6.837891
 1718.6148   1718.005   85.07813   12.17969   87.92188   84.84375   .8084908   1.048112   .8499346   2.290573   22.44014   .0116577   2.035604   4.154205  -1.267120   6.050781
 1718.7672   1718.157   84.57813   12.17969   88.01563   85.29688   .7853899   .9593115   1.009114   2.286633   22.36633   .0051498   2.044495   4.060078  -1.318115   5.572144
 1718.9196   1718.310   83.23438   12.17969   83.54688   85.79297   .7416334   .9337025   .6774087   2.293243   21.73691  -.0033798   2.052460   3.982615  -1.516357   5.520264
 1719.0720   1718.462   81.89063   12.17969   77.64063   86.30078   .7419810   .9151459   .5958657   2.303329   21.06705  -.0104980   2.038086   3.976225  -1.695923   5.701660
 1719.2244   1718.615   80.82813   12.17969   74.84375   86.96094   .7382846   .9203935   .6595049   2.309296   20.60661  -.0136719   2.033630   3.991699  -1.808136   5.868378
 1719.3768   1718.767   80.71875   12.17969   75.17188   87.54688   .7980561   .9392385   .8618164   2.310202   20.53375  -.0133266   2.081665   3.974438  -1.769287   5.826782
 1719.5292   1718.919   80.87500   12.17969   76.26563   87.74219   .8601027   1.056056   .8561196   2.311268   20.96558  -.0132465   2.176025   3.921652  -1.623535   5.745850
 1719.6816   1719.072   80.23438   12.17969   77.01563   87.62500   .8611951   1.096949   .8479815   2.318787   21.61903  -.0151577   2.239437   3.873491  -1.607056   5.949219
 1719.8340   1719.224   79.07813   12.17969   76.98438   87.50000   .8913441   1.135941   .9868164   2.331406   21.89502  -.0168048   2.209839   3.853333  -1.758057   6.358398
 1719.9864   1719.377   77.92188   12.17969   75.09375   87.32813   .9209380   1.163203   .8385415   2.341450   21.58012  -.0156403   2.114258   3.841196  -1.895172   6.679199
 1720.1388   1719.529   77.28125   12.17969   71.25000   86.96094   .9086795   1.138125   .9023438   2.344410   21.17348  -.0120468   2.037704   3.836952  -1.904724   6.715332
 1720.2912   1719.681   77.28125   12.17969   68.43750   86.59766   .9208727   1.164943   .9238281   2.343750   20.98122  -.0082245   2.044556   3.852962  -1.867203   6.569946
 1720.4436   1719.834   77.28125   12.17969   68.31250   86.40234   .9036160   1.180196   .9695635   2.344662   20.95699  -.0061498   2.111511   3.881025  -1.871368   6.462769
 1720.5960   1719.986   76.84375   12.17969   69.17188   86.38672   .8834982   1.166461   .8802080   2.347721   21.07362  -.0062790   2.176941   3.906250  -1.888885   6.422241
 1720.7484   1720.139   76.18750   12.17969   70.40625   86.23828   .8841033   1.146780   .8795571   2.350975   21.14873  -.0067387   2.200455   3.880692  -1.811768   6.366882
 1720.9008   1720.291   75.81250   12.17969   71.35938   85.74609   .8973684   1.138224   .9150391   2.353886   21.00563  -.0055809   2.185455   3.795719  -1.658691   6.360107
 1721.0532   1720.443   75.70313   12.17969   72.10938   85.37500   .8525028   1.167432   .9129229   2.356934   20.61386  -.0037489   2.174805   3.735352  -1.677734   6.608887
 1721.2056   1720.596   75.51563   12.17969   72.87500   85.49609   .8818898   1.120207   .9104815   2.361290   20.11261  -.0029492   2.199188   3.752470  -1.929932   7.059082
 1721.3580   1720.748   75.03125   12.18945   73.20313   85.83203   .8556085   1.100901   .9444985   2.368759   19.69376  -.0021496   2.224701   3.809786  -2.128296   7.289551
 1721.5104   1720.901   74.43750   12.22266   74.17188   86.10547   .8497052   1.126262   .9809570   2.376013   19.36073  -.0003395   2.179565   3.858328  -2.024658   6.963867
 1721.6628   1721.053   74.32813   12.25977   75.71875   86.28906   .8825564   1.162176   .9547524   2.374115   19.04526   .0002842   2.062622   3.919601  -1.787842   6.321777
 1721.8152   1721.206   75.01563   12.27344   77.50000   86.32422   .9104872   1.184159   1.034180   2.358887   18.75171  -.0018501   1.945923   4.019833  -1.781494   5.947632
 1721.9676   1721.358   76.46875   12.27344   78.45313   86.28516   .9391718   1.237521   1.195313   2.336670   18.54553  -.0047913   1.914185   4.116821  -1.938721   5.831543
 1722.1200   1721.510   77.92188   12.27344   77.82813   86.19531   .9517350   1.243654   1.089844   2.318901   18.50452  -.0058622   1.995117   4.156635  -1.999939   5.734467
 1722.2724   1721.663   78.51563   12.27344   77.98438   86.05469   .8780155   1.154197   .9160156   2.310707   18.91327  -.0056095   2.108582   4.126549  -1.910889   5.766327
 1722.4248   1721.815   78.60938   12.27344   78.31250   86.05469   .8168969   1.047149   .8395181   2.307653   19.94019  -.0061789   2.138489   4.095005  -1.766479   5.799351
 1722.5772   1721.968   78.60938   12.27344   77.00000   86.16406   .7798400   .9987392   .7420244   2.307693   21.20285  -.0065060   2.081360   4.116520  -1.769653   5.840088
