~Version Information
VERS.                     2.0: CWLS log ASCII Standard Version 2.00
WRAP.                      NO: One line per depth step
~Well Information Block
#MNEM.UNIT                 Value                       Information
#------------              -----                       -----------
STRT.M                     47.2440                    :START
STOP.M                   2609.8500                    :STOP
STEP.M                       .1524                    :STEP
NULL.                     -999.25                     :NULL VALUE
WELL.         NORTH HERALD 1                          :Well Name
FLD .         NORTH HERALD                            :Field
PROV.                                                 :Province
LOC .                                                 :Field Location
PD  .         MSL                                     :Permanent Datum
UWI .                                                 :Unique Well ID
ELZ .M               .00                              :Elevation Log Zero
OS  .                                                 :Services
SRVC.                                                 :Service company
DATE.                                                 :Date
~Curve Information
#MNEM   .UNIT             API CODE Curve Description
#------------             -------- -----------------
DEPT    .M                        :   1  Depth
DEP     .M                        :   2  Measured Depth
FDTU    .US/F                     :   3  Delta T
ACAL    .CM                       :   4  Caliper Log
SGRC    .GAPI                     :   5  Gamma-Ray Log
SP      .MV                       :   6  Spontaneous Potential Log
LLS     .OHMM                     :   7  Shallow Laterolog
SEDP    .OHMM                     :   8  Laterolog Deep Resistivity
MSFL    .OHMM                     :   9  Micro Spherically Focused Log
SBDC    .G/C3                     :  10  Compensated Formation Density Log
FSTP    .PU                       :  11  Neutron Log Porosity
DRHO    .G/C3                     :  12  Density Log Correction
PEF     .                         :  13  Photoelectric Factor
POTA    .PU                       :  14  Potassium Concentration
URAN    .PPM                      :  15  Uranium
THOR    .PPM                      :  16  Thorium
~Parameter Information
#MNEM.UNIT       Value           Description
#------------    -----           -----------
BLI .M           2608.94        :Bottom log interval
TLI .M             47.09        :Top log interval
~Other Information
~A
# ...
  551.9928   551.8403   142.0410   16.73438   55.21875   5.468750   .7561274   .6702962   .8955078    -999.25    -999.25    -999.25    -999.25    -999.25    -999.25    -999.25
  552.1452   551.9927   138.6016   16.73438   53.46875   5.750000   .8246794   .7091165   1.163736    -999.25    -999.25    -999.25    -999.25    -999.25    -999.25    -999.25
  552.2976   552.1451   139.7246   16.79688   52.84375   5.968750   .8173618   .7124753   1.248372    -999.25    -999.25    -999.25    -999.25    -999.25    -999.25    -999.25
  552.4500   552.2975   143.2188   16.78125   55.50000   6.468750   .7427835   .6609340   1.179361    -999.25    -999.25    -999.25    -999.25    -999.25    -999.25    -999.25
  552.6024   552.4500   150.1133   16.56250   55.37500   6.968750   .6835995   .5907135   1.151692    -999.25    -999.25    -999.25    -999.25    -999.25    -999.25    -999.25
  552.7548   552.6023   156.8691   16.70313   54.93750   6.500000   .6025295   .5254412   .8955078    -999.25    -999.25    -999.25    -999.25    -999.25    -999.25    -999.25
  552.9072   552.7546   161.1309   16.79688   50.75000   6.593750   .5616236   .4913557   .7703447    -999.25    -999.25    -999.25    -999.25    -999.25    -999.25    -999.25
  553.0596   552.9071   163.8188   16.70313   52.50000   6.968750   .5469341   .4639828   .6093750    -999.25    -999.25    -999.25    -999.25    -999.25    -999.25    -999.25
  553.2120   553.0594   162.5039   17.07813   53.46875   6.968750   .5067763   .4619069   .5618486    -999.25    -999.25    -999.25    -999.25    -999.25    -999.25    -999.25
  553.3644   553.2119   159.0293   17.42188   54.78125   6.406250   .5450001   .4660895   .6472979    -999.25    -999.25    -999.25    -999.25    -999.25    -999.25    -999.25
  553.5168   553.3643   155.0938   16.87500   58.50000   6.031250   .5714736   .4940898   .6541338    -999.25    -999.25    -999.25    -999.25    -999.25    -999.25    -999.25
  553.6692   553.5167   153.0020   16.85938   59.00000   6.281250   .6202521   .5355482   .8061523    -999.25    -999.25    -999.25    -999.25    -999.25    -999.25    -999.25
  553.8216   553.6691   151.7627   16.76563   58.96875   5.406250   .6850171   .5857964   .9148760    -999.25    -999.25    -999.25    -999.25    -999.25    -999.25    -999.25
  553.9740   553.8215   151.0797   16.73438   50.25000   4.375000   .7203822   .6419253   .9799805    -999.25    -999.25    -999.25    -999.25    -999.25    -999.25    -999.25
  554.1264   553.9739   150.9094   16.76563   46.00000   4.625000   .7562160   .6603966   1.010254    -999.25    -999.25    -999.25    -999.25    -999.25    -999.25    -999.25
  554.2788   554.1263   151.0217   16.76563   43.43750   3.343750   .7471390   .6608829   .9632158    -999.25    -999.25    -999.25    -999.25    -999.25    -999.25    -999.25
  554.4312   554.2787   152.5420   16.78125   45.43750   2.093750   .7156539   .6185098   .9731445    -999.25    -999.25    -999.25    -999.25    -999.25    -999.25    -999.25
  554.5836   554.4310   156.5872   16.78125   46.50000   2.250000   .6720877   .5977850   .9360352    -999.25    -999.25    -999.25    -999.25    -999.25    -999.25    -999.25
  554.7360   554.5835   157.2078   16.78125   44.78125   2.375000   .6567721   .5704412   .8924150    -999.25    -999.25    -999.25    -999.25    -999.25    -999.25    -999.25
  554.8884   554.7358   157.1064   16.76563   42.12500   .8750000   .6215987   .5631018   .8813477    -999.25    -999.25    -999.25    -999.25    -999.25    -999.25    -999.25
  555.0408   554.8883   154.4839   16.78125   44.06250   .2500000   .6196995   .5520024   .8595376    -999.25    -999.25    -999.25    -999.25    -999.25    -999.25    -999.25
  555.1932   555.0406   153.0671   16.76563   45.25000   1.218750   .6223803   .5515113   .8190103    -999.25    -999.25    -999.25    -999.25    -999.25    -999.25    -999.25
  555.3456   555.1931   153.8242   16.76563   47.09375   .9375000   .5980277   .5362091   .9261065    -999.25    -999.25    -999.25    -999.25    -999.25    -999.25    -999.25
  555.4980   555.3455   156.4023   16.78125   43.59375   1.593750   .6008630   .5411806   .9138994    -999.25    -999.25    -999.25    -999.25    -999.25    -999.25    -999.25
  555.6504   555.4979   157.4021   16.76563   41.03125   .4687500   .6264057   .5228562   .9265947    -999.25    -999.25    -999.25    -999.25    -999.25    -999.25    -999.25
  555.8028   555.6503   157.1852   16.76563   39.25000   .8750000   .5702987   .5138783   .9041338    -999.25    -999.25    -999.25    -999.25    -999.25    -999.25    -999.25
  555.9552   555.8027   156.5422   16.78125   39.68750   .7812500   .5678687   .5202060   .8603516    -999.25    -999.25    -999.25    -999.25    -999.25    -999.25    -999.25
  556.1076   555.9551   155.0352   16.78125   41.09375   .8750000   .5584159   .5265541   .8966470    -999.25    -999.25    -999.25    -999.25    -999.25    -999.25    -999.25
  556.2600   556.1075   153.7666   16.78125   41.78125   1.250000   .5729399   .5259142   .9658203    -999.25    -999.25    -999.25    -999.25    -999.25    -999.25    -999.25
  556.4124   556.2599   153.5961   16.78125   41.71875   1.656250   .5905814   .5262671   .9181314    -999.25    -999.25    -999.25    -999.25    -999.25    -999.25    -999.25
  556.5648   556.4122   152.4980   16.78125   43.56250   1.250000   .5994873   .5453119   .8911133    -999.25    -999.25    -999.25    -999.25    -999.25    -999.25    -999.25
  556.7172   556.5647   150.7363   16.79688   45.46875   1.156250   .6048622   .5390677   .9576821    -999.25    -999.25    -999.25    -999.25    -999.25    -999.25    -999.25
  556.8696   556.7170   149.2461   16.81250   48.34375   1.531250   .6159873   .5660467   1.046549    -999.25    -999.25    -999.25    -999.25    -999.25    -999.25    -999.25
  557.0220   556.8695   147.7173   16.81250   49.31250   1.875000   .6327429   .5829682   1.008301    -999.25    -999.25    -999.25    -999.25    -999.25    -999.25    -999.25
  557.1744   557.0219   146.6377   16.81250   48.03125   2.125000   .6880517   .5998015   1.020508    -999.25    -999.25    -999.25    -999.25    -999.25    -999.25    -999.25
  557.3268   557.1743   145.4111   16.81250   46.59375   2.656250   .7284002   .6454029   1.051106    -999.25    -999.25    -999.25    -999.25    -999.25    -999.25    -999.25
  557.4792   557.3267   145.4619   16.81250   49.59375   2.500000   .7648005   .6762638   1.071939    -999.25    -999.25    -999.25    -999.25    -999.25    -999.25    -999.25
  557.6316   557.4791   147.6467   16.76563   51.71875   2.781250   .7902088   .7055063   1.084635    -999.25    -999.25    -999.25    -999.25    -999.25    -999.25    -999.25
  557.7840   557.6315   148.0797   16.78125   54.78125   3.281250   .8296547   .7146955   1.079102    -999.25    -999.25    -999.25    -999.25    -999.25    -999.25    -999.25
  557.9364   557.7839   148.4980   16.78125   55.03125   3.000000   .8093491   .7210789   1.117513    -999.25    -999.25    -999.25    -999.25    -999.25    -999.25    -999.25
  558.0888   557.9363   151.0508   17.01563   57.21875   3.125000   .8143082   .6885839   1.052408    -999.25    -999.25    -999.25    -999.25    -999.25    -999.25    -999.25
  558.2412   558.0887   155.5850   17.20313   56.84375   3.343750   .7398767   .6642742   1.033854    -999.25    -999.25    -999.25    -999.25    -999.25    -999.25    -999.25
  558.3936   558.2411   159.2354   17.12500   55.62500   3.000000   .6889834   .5916181   1.013184    -999.25    -999.25    -999.25    -999.25    -999.25    -999.25    -999.25
  558.5460   558.3934   159.8896   17.12500   57.71875   3.156250   .6356902   .5448647   .7332354    -999.25    -999.25    -999.25    -999.25    -999.25    -999.25    -999.25
  558.6984   558.5459   157.4238   16.85938   59.93750   3.625000   .6065288   .5264478   .5890298    -999.25    -999.25    -999.25    -999.25    -999.25    -999.25    -999.25
  558.8508   558.6982   154.9346   16.84375   61.75000   4.343750   .5775719   .5095716   .5781250    -999.25    -999.25    -999.25    -999.25    -999.25    -999.25    -999.25
