~Version Information
VERS.                     2.0: CWLS log ASCII Standard Version 2.00
WRAP.                      NO: One line per depth step
~Well Information Block
#MNEM.UNIT                 Value                       Information
#------------              -----                       -----------
STRT.M                     47.2440                    :START
STOP.M                   2609.8500                    :STOP
STEP.M                       .1524                    :STEP
NULL.                     -999.25                     :NULL VALUE
WELL.         NORTH HERALD 1                          :Well Name
FLD .         NORTH HERALD                            :Field
PROV.                                                 :Province
LOC .                                                 :Field Location
PD  .         MSL                                     :Permanent Datum
UWI .                                                 :Unique Well ID
ELZ .M               .00                              :Elevation Log Zero
OS  .                                                 :Services
SRVC.                                                 :Service company
DATE.                                                 :Date
~Curve Information
#MNEM   .UNIT             API CODE Curve Description
#------------             -------- -----------------
DEPT    .M                        :   1  Depth
DEP     .M                        :   2  Measured Depth
FDTU    .US/F                     :   3  Delta T
ACAL    .CM                       :   4  Caliper Log
SGRC    .GAPI                     :   5  Gamma-Ray Log
SP      .MV                       :   6  Spontaneous Potential Log
LLS     .OHMM                     :   7  Shallow Laterolog
SEDP    .OHMM                     :   8  Laterolog Deep Resistivity
MSFL    .OHMM                     :   9  Micro Spherically Focused Log
SBDC    .G/C3                     :  10  Compensated Formation Density Log
FSTP    .PU                       :  11  Neutron Log Porosity
DRHO    .G/C3                     :  12  Density Log Correction
PEF     .                         :  13  Photoelectric Factor
POTA    .PU                       :  14  Potassium Concentration
URAN    .PPM                      :  15  Uranium
THOR    .PPM                      :  16  Thorium
~Parameter Information
#MNEM.UNIT       Value           Description
#------------    -----           -----------
BLI .M           2608.94        :Bottom log interval
TLI .M             47.09        :Top log interval
~Other Information
~A
# ...
 2010.1560   2009.394   76.35156   12.27344   69.60938   87.93750   1.102376   1.492645   1.077799   2.343262   14.06250  -.0043945   1.666260   3.771973  -1.716797   7.085938
 2010.3084   2009.546   76.15625   12.27344   71.68750   87.71094   1.172953   1.531970   1.114583   2.354004   14.51416  -.0050049   1.676514   3.723145  -1.678711   7.213867
 2010.4608   2009.699   75.92969   12.27344   75.96875   87.43750   1.267844   1.680170   1.141602   2.364258   15.02686  -.0062256   1.677734   3.759766  -1.592285   6.998047
 2010.6132   2009.851   75.74512   12.27344   80.57813   87.18750   1.347071   1.875557   1.386719   2.366699   14.99023  -.0075684   1.659180   3.784180  -1.498535   6.923828
 2010.7656   2010.003   75.67578   12.27344   82.95313   87.04688   1.413990   1.961715   1.573567   2.359863   14.66064  -.0079346   1.636719   3.808594  -1.520508   7.004883
 2010.9180   2010.156   75.82910   12.27344   82.31250   87.17188   1.307419   1.843444   1.851888   2.349121   14.40430  -.0081787   1.639404   3.869629  -1.729736   7.032227
 2011.0704   2010.308   75.81250   12.27344   79.87500   87.55469   1.235249   1.721903   1.211914   2.342285   14.17236  -.0085449   1.661865   3.918457  -2.108154   7.268555
 2011.2228   2010.461   75.71875   12.27344   76.40625   87.92188   1.205326   1.651233   1.036133   2.342773   13.76953  -.0064697   1.661865   3.955078  -2.573242   7.830078
 2011.3752   2010.613   75.93750   12.27344   73.75000   88.18750   1.184159   1.635695   1.027344   2.345215   13.56201  -.0012207   1.633301   3.967285  -2.689453   7.991211
 2011.5276   2010.765   76.14063   12.27344   72.85938   88.50000   1.121561   1.628829   1.383789   2.343262   13.95264   .0047607   1.626709   3.942871  -2.360840   7.439453
 2011.6800   2010.918   76.28125   12.27344   73.20313   88.84375   1.148962   1.609744   1.134603   2.336914   14.68506   .0092773   1.647217   3.967285  -2.201172   6.899414
 2011.8324   2011.070   76.21875   12.27344   72.00000   89.17188   1.104231   1.562302   .9363604   2.331055   15.28320   .0117188   1.654785   4.003906  -2.417969   7.031250
 2011.9848   2011.223   75.71875   12.27344   69.60938   89.42188   1.048971   1.418858   .9500322   2.331543   15.53955   .0123291   1.620605   4.003906  -2.772949   7.606445
 2012.1372   2011.375   75.17188   12.27344   69.43750   89.41406   1.039550   1.393928   .9713540   2.337402   15.45410   .0103760   1.582275   4.040527  -3.035645   7.896484
 2012.2896   2011.528   74.67188   12.27344   71.37500   89.21094   1.051321   1.441365   .9965820   2.345215   15.00244   .0057373   1.584229   4.150391  -3.187500   7.894531
 2012.4420   2011.680   74.03125   12.27344   73.26563   88.95313   1.086021   1.469578   1.040689   2.351074   14.29443   .0002441   1.607910   4.223633  -3.168457   7.762695
 2012.5944   2011.832   73.32813   12.27344   73.53125   88.70313   1.124878   1.520658   1.074869   2.353027   13.65967  -.0040283   1.630859   4.064941  -2.494873   6.939453
 2012.7468   2011.985   72.93750   12.27344   73.71875   88.53125   1.158844   1.612372   1.091471   2.355957   13.22021  -.0057373   1.629150   3.820801  -1.618896   5.964844
 2012.8992   2012.137   73.13892   12.27344   73.40625   88.34375   1.140981   1.625931   1.160481   2.363770   12.70752  -.0042725   1.623291   3.747559  -1.487549   6.064453
 2013.0516   2012.290   73.27881   12.27344   71.31250   88.05469   1.225641   1.747561   1.253906   2.375000   12.02393  -.0007324   1.637207   3.759766  -1.733398   6.677734
 2013.2040   2012.442   73.46387   12.27344   69.56250   87.85156   1.284983   1.845385   1.355469   2.380859   11.54785   .0015869   1.655518   3.771973  -1.770264   6.862305
 2013.3564   2012.594   73.55920   12.27344   70.78125   87.71094   1.266544   1.825584   1.329102   2.376465   11.59668   .0010986   1.668457   3.820801  -1.773682   6.811523
 2013.5088   2012.747   73.56250   12.27344   74.67188   87.39844   1.268527   1.839856   1.303060   2.366211   12.07275  -.0018311   1.664795   3.881836  -1.893311   6.815430
 2013.6612   2012.899   73.60693   12.27344   77.25000   87.05469   1.245784   1.799155   1.188150   2.357422   12.53662  -.0050049   1.653809   3.869629  -1.977539   6.887695
 2013.8136   2013.052   73.60938   12.27344   77.89063   86.80469   1.228005   1.756083   1.185547   2.354980   12.74414  -.0056152   1.650391   3.820801  -2.148926   7.256836
 2013.9660   2013.204   73.62390   12.27344   78.20313   86.64063   1.179543   1.695781   1.180989   2.356445   12.73193  -.0037842   1.648682   3.808594  -2.213379   7.430664
 2014.1184   2013.356   73.82666   12.27344   78.39063   86.64063   1.174268   1.653584   1.178711   2.356445   12.56104  -.0021973   1.638428   3.820801  -1.980225   6.945313
 2014.2708   2013.509   73.88654   12.27344   78.06250   86.82031   1.128572   1.608724   1.114583   2.352051   12.40234  -.0032959   1.614746   3.857422  -1.908203   6.586914
 2014.4232   2013.661   73.79175   12.27344   77.82813   87.18750   1.121526   1.542777   1.084310   2.347168   12.41455  -.0054932   1.594727   3.881836  -2.055420   6.793945
 2014.5756   2013.813   73.87915   12.27344   79.03125   87.58594   1.116310   1.534795   1.097981   2.348633   12.57324  -.0056152   1.598877   3.894043  -2.368164   7.391602
 2014.7280   2013.966   73.98767   12.27344   78.78125   87.79688   1.147606   1.572663   1.137044   2.357910   12.65869  -.0021973   1.614746   3.808594  -2.470703   7.833008
 2014.8804   2014.118   73.90393   12.27344   76.18750   87.90625   1.188525   1.549194   1.225911   2.369629   12.50000   .0034180   1.613770   3.613281  -2.197754   7.978516
 2015.0328   2014.271   73.83630   12.27344   73.59375   88.04688   1.191867   1.593841   1.258463   2.376953   12.30469   .0072021   1.596191   3.515625  -2.135254   8.274414
 2015.1852   2014.423   73.96265   12.27344   71.50000   88.08594   1.181361   1.564645   1.218099   2.377441   12.30469   .0061035   1.594727   3.491211  -2.030518   8.416016
 2015.3376   2014.575   73.98438   12.27344   70.65625   88.00781   1.133849   1.492437   1.191406   2.373535   12.46338   .0012207   1.634766   3.540039  -1.994141   8.599609
 2015.4900   2014.728   73.79980   12.27344   72.59375   87.90625   1.175970   1.580418   1.170247   2.371094   12.59766  -.0020752   1.708008   3.662109  -2.225342   9.056641
 2015.6424   2014.880   73.30908   12.27344   77.92188   87.71875   1.331253   1.748257   1.170572   2.373535   12.54883  -.0004883   1.769775   3.735352  -2.249023   9.298828
 2015.7948   2015.033   72.48340   12.27344   82.03125   87.43750   1.348583   1.849702   1.434896   2.376953   12.74414   .0026855   1.776123   3.784180  -2.415039   9.671875
 2015.9472   2015.185   71.83008   12.27344   81.03125   87.01563   1.363343   1.921064   2.164063   2.377930   13.42773   .0029297   1.735107   3.710938  -2.614746   10.03125
 2016.0996   2015.337   71.75665   12.27344   77.20313   86.64844   1.413590   1.959126   1.368164   2.378906   13.89160  -.0004883   1.693359   3.564453  -2.720215   10.21680
 2016.2520   2015.490   72.16553   12.27344   72.98438   86.58594   1.407429   1.865273   1.240560   2.382324   13.48877  -.0041504   1.684326   3.552246  -2.879883   10.16797
 2016.4044   2015.642   72.58691   12.27344   70.39063   86.56250   1.413914   1.801651   1.402018   2.386719   12.42676  -.0051270   1.699951   3.625488  -2.697754   9.458984
 2016.5568   2015.795   72.87964   12.27344   71.04688   86.46094   1.458923   1.854225   1.520182   2.387695   11.60889  -.0040283   1.705811   3.674316  -2.325195   8.775391
 2016.7092   2015.947   73.16724   12.27344   75.35938   86.38281   1.483515   1.917861   1.518229   2.384277   11.40137  -.0030518   1.697266   3.674316  -1.843994   8.121094
 2016.8616   2016.099   73.76074   12.27344   78.87500   86.21875   1.500169   1.909170   1.502278   2.383301   11.46240  -.0029297   1.705811   3.686523  -1.370850   7.319336
 2017.0140   2016.252   74.90430   12.27344   78.15625   86.06250   1.460530   1.876287   1.572266   2.388672   11.63330  -.0036621   1.764648   3.747559  -1.262207   7.004883
