~Version Information
VERS.                     2.0: CWLS log ASCII Standard Version 2.00
WRAP.                      NO: One line per depth step
~Well Information Block
#MNEM.UNIT                 Value                       Information
#------------              -----                       -----------
STRT.M                     47.2440                    :START
STOP.M                   2609.8500                    :STOP
STEP.M                       .1524                    :STEP
NULL.                     -999.25                     :NULL VALUE
WELL.         NORTH HERALD 1                          :Well Name
FLD .         NORTH HERALD                            :Field
PROV.                                                 :Province
LOC .                                                 :Field Location
PD  .         MSL                                     :Permanent Datum
UWI .                                                 :Unique Well ID
ELZ .M               .00                              :Elevation Log Zero
OS  .                                                 :Services
SRVC.                                                 :Service company
DATE.                                                 :Date
~Curve Information
#MNEM   .UNIT             API CODE Curve Description
#------------             -------- -----------------
DEPT    .M                        :   1  Depth
DEP     .M                        :   2  Measured Depth
FDTU    .US/F                     :   3  Delta T
ACAL    .CM                       :   4  Caliper Log
SGRC    .GAPI                     :   5  Gamma-Ray Log
SP      .MV                       :   6  Spontaneous Potential Log
LLS     .OHMM                     :   7  Shallow Laterolog
SEDP    .OHMM                     :   8  Laterolog Deep Resistivity
MSFL    .OHMM                     :   9  Micro Spherically Focused Log
SBDC    .G/C3                     :  10  Compensated Formation Density Log
FSTP    .PU                       :  11  Neutron Log Porosity
DRHO    .G/C3                     :  12  Density Log Correction
PEF     .                         :  13  Photoelectric Factor
POTA    .PU                       :  14  Potassium Concentration
URAN    .PPM                      :  15  Uranium
THOR    .PPM                      :  16  Thorium
~Parameter Information
#MNEM.UNIT       Value           Description
#------------    -----           -----------
BLI .M           2608.94        :Bottom log interval
TLI .M             47.09        :Top log interval
~Other Information
~A
# ...
 1133.8560   1133.399   125.8105   18.04297   132.7188   21.31250   1.305915   1.299290   .4558918   2.174408   42.28067   .1418915   2.255554   4.816555  -.4377441   16.48926
 1134.0084   1133.551   123.5293   17.73828   132.8750   21.32031   1.384012   1.401363   .5244141   2.215088   42.52185   .1508846   2.301392   4.794846  -.5697174   16.89502
 1134.1608   1133.703   120.2617   17.21875   135.0625   21.27148   1.468922   1.459160   .7915039   2.252579   42.67233   .1431427   2.333374   4.782734  -.5175781   16.94531
 1134.3132   1133.856   117.7393   17.01563   136.1250   21.03125   1.546207   1.601286   .8637695   2.276665   41.63208   .1128235   2.363159   4.761314  -.1123047   16.32080
 1134.4656   1134.008   116.7314   17.25781   134.0313   20.77344   1.605959   1.619977   1.345703   2.253296   39.44397   .0712280   2.407043   4.691792   .4265137   15.55811
 1134.6180   1134.161   117.5215   17.46094   132.8750   20.66602   1.514977   1.518727   1.816406   2.170654   37.77960   .0445261   2.448215   4.587029   .9458008   14.85840
 1134.7704   1134.313   119.9707   17.66016   134.7188   20.64648   1.404809   1.401568   1.197266   2.066833   37.38040   .0495911   2.428406   4.514549   1.371338   14.14844
 1134.9228   1134.466   123.3203   18.03906   135.6563   20.60156   1.298822   1.300539   .3323567   1.976440   37.70508   .0717163   2.359161   4.510258   1.580719   13.65051
 1135.0752   1134.618   127.2031   18.22266   133.0000   20.53320   1.216005   1.244149   .3922524   1.901855   37.66135   .0811729   2.324615   4.542881   1.607422   13.41113
 1135.2276   1134.770   129.9307   18.01953   128.5000   20.64844   1.247173   1.232244   .2620442   1.862286   37.07352   .0742760   2.390137   4.553223   1.575821   13.31390
 1135.3800   1134.923   131.6165   17.72266   125.7969   20.85156   1.221778   1.252165   .2439778   1.869995   36.88431   .0707207   2.555786   4.559921   1.514893   13.23535
 1135.5324   1135.075   131.2383   17.44141   126.7500   20.82031   1.234529   1.261752   .2755532   1.879669   38.33313   .0789604   2.668152   4.605221   1.244141   13.41553
 1135.6848   1135.228   126.0000   17.10938   130.0156   20.70313   1.353465   1.377239   .4667969   1.854218   41.33453   .0865250   2.582886   4.623482   .8669434   13.94995
 1135.8372   1135.380   119.1719   17.21094   133.3125   20.80469   1.405799   1.468215   .4112954   1.840057   43.24570   .0907288   2.404358   4.602051   .7754517   14.11646
 1135.9896   1135.532   115.2656   17.93750   134.9063   21.05469   1.436487   1.494884   .2872720   1.890015   42.03644   .1070709   2.310394   4.603355   .8679199   13.78857
 1136.1420   1135.685   114.6094   18.68359   134.5313   21.31250   1.433370   1.490026   .4235024   1.966278   39.11133   .1334686   2.344635   4.620312   .9671021   13.32251
 1136.2944   1135.837   118.8125   19.07422   133.0625   21.57227   1.336055   1.361104   .5182290   2.001823   38.08289   .1493354   2.399239   4.689884   .8955078   12.99530
 1136.4468   1135.990   124.1719   19.32813   131.3438   21.73242   1.211663   1.261036   .4161782   2.005596   40.15503   .1481705   2.385925   4.837059   .4252930   13.06561
 1136.5992   1136.142   128.0313   19.70313   129.5000   21.90039   1.212739   1.242146   .2804360   2.006500   42.02194   .1434555   2.349991   4.859447   .1413574   13.05005
 1136.7516   1136.294   127.6406   19.93750   127.6094   22.17383   1.182419   1.264668   .4028320   1.985703   41.04614   .1368332   2.327423   4.717396   .3878174   12.69592
 1136.9040   1136.447   122.8906   19.76563   125.0313   22.25586   1.227544   1.292921   .3570962   1.962357   38.96692   .1232891   2.302521   4.622746   .5836182   12.54102
 1137.0564   1136.599   117.1406   19.50781   122.0469   22.15039   1.372590   1.379367   .2898762   1.992554   38.66843   .1206818   2.290497   4.560230   .5085754   12.89502
 1137.2088   1136.751   113.0938   19.22266   118.6719   22.08789   1.420357   1.453575   .2592773   2.076111   39.45618   .1427765   2.328918   4.465530   .4813843   13.32367
 1137.3612   1136.904   111.5938   19.02344   114.7969   21.94141   1.526532   1.587460   .3999023   2.140663   38.99536   .1698971   2.420715   4.420349   .5829926   13.43689
 1137.5136   1137.056   113.9375   19.19922   112.7969   21.67383   1.504718   1.559006   .3413086   2.127563   38.57574   .1718521   2.505295   4.458187   .5493164   13.54932
 1137.6660   1137.209   119.2813   19.27734   114.0781   21.50781   1.421625   1.433666   .3308918   2.069000   39.81476   .1555405   2.522522   4.544640  -.0190430   14.52148
 1137.8184   1137.361   123.6875   19.10938   117.8125   21.32031   1.336211   1.348435   .3790689   2.012146   41.71371   .1460400   2.485779   4.702854  -.8752441   15.94067
 1137.9708   1137.513   125.4844   19.00000   120.6875   20.96680   1.180139   1.231211   .2718098   1.975952   42.65900   .1489506   2.437073   4.908085  -1.205383   16.26855
 1138.1232   1137.666   126.4219   18.84766   121.3906   20.60156   1.220592   1.217510   .2167969   1.958008   41.74805   .1512451   2.396790   5.041504  -.9876709   15.70703
 1138.2756   1137.818   125.5781   18.45703   121.9688   20.46094   1.181144   1.225594   .2644856   1.967529   41.30859   .1525879   2.353149   5.102539  -1.040039   15.74609
 1138.4280   1137.971   122.2813   18.21875   124.2031   20.67188   1.225530   1.219770   .3144531   1.978760   39.74609   .1534424   2.303223   5.187988  -1.233521   15.92773
 1138.5804   1138.123   119.9688   18.62891   127.1563   20.88086   1.249958   1.249477   .3046875   1.980713   38.23242   .1505127   2.336426   5.236816  -1.457031   16.27734
 1138.7328   1138.275   120.5156   19.37891   129.1563   20.90039   1.259955   1.240965   .3172200   1.955322   37.93945   .1347656   2.317383   5.285645  -1.637207   16.52148
 1138.8852   1138.428   123.7188   19.87109   130.1250   20.77344   1.158607   1.153197   .2820637   1.900635   39.66064   .1119385   2.222656   5.322266  -1.509521   16.11133
 1139.0376   1138.580   127.2656   19.37109   130.6875   20.59180   1.147471   1.130537   .3315430   1.834961   42.15088   .0930176   2.147949   5.273438  -1.209717   15.66992
 1139.1900   1138.733   130.3438   18.08984   131.4375   20.53320   1.142463   1.172364   .3149414   1.787598   43.62793   .0799561   2.133301   5.224609  -1.024536   15.61523
 1139.3424   1138.885   131.1250   17.80078   131.7813   20.50781   1.128899   1.123357   .3089192   1.796143   43.84766   .0822754   2.139648   5.249023  -.9036865   15.57813
 1139.4948   1139.037   128.8438   18.74609   130.8750   20.54688   1.127072   1.143216   .2721353   1.838379   43.34717   .0953369   2.125488   5.236816  -.8664551   15.76563
 1139.6472   1139.190   129.1563   19.02734   128.2969   20.58594   1.210243   1.185485   .1831055   1.866455   43.60352   .0987549   2.070313   5.078125  -.5233154   15.81641
 1139.7996   1139.342   129.0469   18.23828   126.7344   20.55469   1.155437   1.120040   .2086588   1.874268   44.15283   .0759277   2.006348   4.882813   .2086182   15.25000
 1139.9520   1139.495   126.5938   17.42188   128.4531   20.57031   1.173743   1.191449   .3307290   1.916504   42.96875   .0495605   1.998535   4.821777   .6833496   14.62695
 1140.1044   1139.647   124.5000   16.87891   132.5781   20.52148   1.211428   1.205748   .2312825   2.024170   40.72266   .0510254   2.086914   4.846191   .7965088   14.31641
 1140.2568   1139.800   119.8125   16.63281   135.3438   20.43164   1.249045   1.248977   .5535479   2.101563   39.09912   .0577393   2.303223   4.858398   .7683105   14.18164
 1140.4092   1139.952   115.9688   16.48828   135.0938   20.47656   1.374110   1.389479   .5400391   2.067871   38.15918   .0454102   2.543457   4.895020   .7037354   13.96680
 1140.5616   1140.104   115.4219   16.30078   135.1875   20.64063   1.449630   1.475245   .4015298   1.976563   37.59766   .0373535   2.623535   4.992676   .5439453   13.76172
 1140.7140   1140.257   115.3750   16.33594   136.8125   20.64844   1.536598   1.531188   .8500977   1.933807   37.73553   .0643616   2.548340   5.061626   .3027344   13.89600
