~Version Information
VERS.                     2.0: CWLS log ASCII Standard Version 2.00
WRAP.                      NO: One line per depth step
~Well Information Block
#MNEM.UNIT                 Value                       Information
#------------              -----                       -----------
STRT.M                     47.2440                    :START
STOP.M                   2609.8500                    :STOP
STEP.M                       .1524                    :STEP
NULL.                     -999.25                     :NULL VALUE
WELL.         NORTH HERALD 1                          :Well Name
FLD .         NORTH HERALD                            :Field
PROV.                                                 :Province
LOC .                                                 :Field Location
PD  .         MSL                                     :Permanent Datum
UWI .                                                 :Unique Well ID
ELZ .M               .00                              :Elevation Log Zero
OS  .                                                 :Services
SRVC.                                                 :Service company
DATE.                                                 :Date
~Curve Information
#MNEM   .UNIT             API CODE Curve Description
#------------             -------- -----------------
DEPT    .M                        :   1  Depth
DEP     .M                        :   2  Measured Depth
FDTU    .US/F                     :   3  Delta T
ACAL    .CM                       :   4  Caliper Log
SGRC    .GAPI                     :   5  Gamma-Ray Log
SP      .MV                       :   6  Spontaneous Potential Log
LLS     .OHMM                     :   7  Shallow Laterolog
SEDP    .OHMM                     :   8  Laterolog Deep Resistivity
MSFL    .OHMM                     :   9  Micro Spherically Focused Log
SBDC    .G/C3                     :  10  Compensated Formation Density Log
FSTP    .PU                       :  11  Neutron Log Porosity
DRHO    .G/C3                     :  12  Density Log Correction
PEF     .                         :  13  Photoelectric Factor
POTA    .PU                       :  14  Potassium Concentration
URAN    .PPM                      :  15  Uranium
THOR    .PPM                      :  16  Thorium
~Parameter Information
#MNEM.UNIT       Value           Description
#------------    -----           -----------
BLI .M           2608.94        :Bottom log interval
TLI .M             47.09        :Top log interval
~Other Information
~A
# ...
 2297.5824   2296.668   79.92578   12.90820   147.5313   25.84766   7.376562   6.611956   12.50781   2.644669   28.00751   .0074997   2.866165   4.693794  -1.472656   19.37109
 2297.7348   2296.820   79.55664   12.88086   141.9375   25.93359   7.332158   6.554068   11.89063   2.634800   28.61099   .0097055   2.897461   4.815769  -2.124023   20.17725
 2297.8872   2296.973   77.45313   12.84180   131.5781   26.31250   7.746212   7.012897   15.63281   2.634426   28.15704   .0088730   2.975830   4.878569  -2.503418   20.29248
 2298.0396   2297.125   75.08594   12.82422   124.8906   26.82813   9.165339   8.222229   16.20833   2.637917   27.07977   .0057335   3.034485   4.932117  -2.636108   19.89746
 2298.1920   2297.277   73.12891   12.82813   123.6250   27.28125   11.01040   9.813589   16.10677   2.639452   25.55847   .0036857   3.039917   4.978108  -2.648193   19.50635
 2298.3444   2297.430   71.45508   12.83203   122.6094   27.54688   12.56849   11.36829   14.49479   2.637993   23.27881   .0047073   2.948730   4.982948  -2.431641   18.91113
 2298.4968   2297.582   70.59668   12.84375   120.2813   27.63672   13.28369   12.38427   13.94531   2.632019   19.99512   .0073814   2.791260   4.905891  -1.722656   17.76367
 2298.6492   2297.735   70.83350   12.87891   119.9688   27.67578   11.93785   11.40980   31.03646   2.617340   16.56189   .0077477   2.687775   4.752731  -.6533203   16.70605
 2298.8016   2297.887   72.75391   12.90039   124.8281   27.66406   10.74253   10.14840   18.68229   2.596649   15.11917   .0038605   2.692505   4.653740  -.0051270   16.90234
 2298.9540   2298.040   76.32031   12.87500   133.7188   27.50391   9.810081   9.174061   11.61719   2.582878   17.16309  -.0007706   2.765503   4.657125   .0520020   17.83789
 2299.1064   2298.192   79.60156   12.86133   141.4063   27.27734   8.163313   7.481112   10.00781   2.586868   21.56982  -.0016251   2.841064   4.705667  -.1459961   18.51221
 2299.2588   2298.344   81.20117   12.89258   143.8125   27.14453   7.254631   6.674853   9.377604   2.602966   25.53711   .0009232   2.870377   4.722881  -.3425293   18.92480
 2299.4112   2298.497   81.41455   12.89844   142.4063   26.98828   7.126118   6.443123   9.372395   2.615891   27.32353   .0028412   2.875519   4.695284  -.3678436   19.07246
 2299.5636   2298.649   81.12793   12.86133   140.7813   26.83984   7.066748   6.451291   10.05208   2.621201   27.22778   .0015068   2.934204   4.691863  -.4135742   19.12817
 2299.7160   2298.801   80.59277   12.85547   139.5313   26.80859   7.006571   6.323163   12.07292   2.630554   26.71194  -.0015564   3.070313   4.691124  -.5498047   19.31055
 2299.8684   2298.954   80.10156   12.88477   136.6563   26.71875   6.848112   6.119566   9.375000   2.650360   27.23541  -.0036774   3.146606   4.666829  -.6416016   19.44458
 2300.0208   2299.106   80.04480   12.87500   132.8438   26.53125   6.655632   5.945620   9.588541   2.665874   29.34265  -.0040188   3.055176   4.634190  -.6736450   19.47399
 2300.1732   2299.259   80.15283   12.83594   132.7813   26.34375   6.656467   5.922949   10.29427   2.660583   32.21436  -.0020218   2.910522   4.585600  -.6273193   19.42261
 2300.3256   2299.411   80.14557   12.82422   135.1250   26.25000   6.602305   5.964555   9.315104   2.639679   33.83408   .0020676   2.855286   4.549170  -.5014648   19.19336
 2300.4780   2299.563   79.52832   12.82813   135.2500   26.20313   6.930017   6.174298   9.955729   2.622452   32.87048   .0060844   2.881897   4.537034  -.3597412   18.81152
 2300.6304   2299.716   77.93555   12.82422   132.6563   26.16406   7.387837   6.569034   9.476563   2.617344   30.21851   .0071850   2.898682   4.517031  -.2523193   18.44629
 2300.7828   2299.868   76.09570   12.82031   129.6563   26.26563   7.870533   7.024320   11.92708   2.617676   27.69775   .0045471   2.885075   4.476738  -.1646729   18.18115
 2300.9352   2300.021   75.02930   12.82031   129.2500   26.42969   8.467218   7.521879   11.59896   2.619194   26.39961   .0013676   2.915527   4.431963  -.0231934   17.94019
 2301.0876   2300.173   75.11426   12.82031   131.4688   26.45313   8.341166   7.519311   11.59635   2.626434   26.31912   .0013580   3.020508   4.410469   .1131439   17.77105
 2301.2400   2300.325   76.13086   12.82031   135.6563   26.42188   7.910160   7.098480   11.75000   2.638489   27.18201   .0038223   3.111870   4.444695   .0815430   17.73621
 2301.3924   2300.478   77.49414   12.82031   140.8125   26.50000   7.302469   6.615352   9.632813   2.645563   29.03137   .0059395   3.075439   4.522419  -.0335693   17.59521
 2301.5448   2300.630   78.37354   12.82031   143.0000   26.72656   7.015501   6.354098   9.505207   2.641541   31.32935   .0069981   2.939087   4.554749  -.1518555   17.47876
 2301.6972   2300.783   77.89258   12.82031   139.0938   26.93750   7.374412   6.795722   9.057291   2.631622   32.20215   .0076904   2.833374   4.518318  -.4301758   17.74463
 2301.8496   2300.935   75.93750   12.82031   130.1875   26.94531   8.262663   7.810028   10.87760   2.621445   29.83398   .0066643   2.758301   4.481936  -.7361450   18.08215
 2302.0020   2301.087   73.70898   12.82031   122.4219   26.91797   9.382717   8.969248   13.72917   2.606537   24.61548   .0026169   2.644409   4.442120  -.6879883   18.05664
 2302.1544   2301.240   72.75665   12.82031   121.4375   27.02734   10.32746   9.901005   22.17708   2.586151   19.34814  -.0014610   2.534607   4.416656  -.3417969   17.79004
 2302.3068   2301.392   73.91016   12.82031   126.4844   27.21875   9.982899   9.535414   15.45833   2.572395   16.88614  -.0009460   2.522705   4.453087  -.0305176   17.60083
 2302.4592   2301.544   76.73438   12.82031   133.9688   27.33594   8.434713   7.926802   14.10156   2.578857   17.82532   .0057068   2.603394   4.489517   .1579895   17.66992
 2302.6116   2301.697   79.67969   12.82031   139.9063   27.33594   7.306526   6.810346   16.45313   2.603271   20.90454   .0145874   2.693420   4.547691   .1054688   18.13867
 2302.7640   2301.850   81.54883   12.81250   141.7500   27.22656   6.492662   6.091974   10.39323   2.626587   24.24927   .0188293   2.740234   4.656982  -.1674805   18.75293
 2302.9164   2302.002   82.26611   12.79102   139.0313   27.04297   6.145021   5.696331   9.786457   2.631531   26.58081   .0153809   2.760864   4.720879  -.3820801   19.11816
 2303.0688   2302.154   82.29028   12.77930   136.2500   26.89453   6.054177   5.625835   10.42188   2.620117   27.48194   .0089874   2.862305   4.769039  -.5947266   19.33838
 2303.2212   2302.307   82.07764   12.79492   137.4375   26.70313   6.034434   5.591520   9.283854   2.612556   27.38552   .0047684   3.147461   4.854012  -.9223633   19.57153
 2303.3736   2302.459   81.69727   12.81445   139.7188   26.43750   6.091280   5.546832   9.578125   2.622986   27.54822   .0023594   3.502686   4.933453  -1.172363   19.67712
 2303.5260   2302.611   80.89453   12.82031   140.0000   26.25000   6.071419   5.510728   9.421875   2.642456   28.90015   .0008545   3.640625   4.994202  -1.263184   19.56348
 2303.6784   2302.764   79.61523   12.82031   137.6875   26.10156   6.325268   5.773717   10.66146   2.653594   30.64957   .0015793   3.437988   5.044186  -1.378174   19.53955
 2303.8308   2302.916   78.40723   12.82031   135.1563   25.84375   6.643631   6.045344   9.080729   2.650955   30.93414   .0050659   3.084961   5.035400  -1.539429   19.92285
 2303.9832   2303.069   78.07520   12.82031   134.1250   25.46094   6.643395   6.085268   13.32031   2.641800   29.30603   .0084739   2.839355   4.942703  -1.645752   20.60547
 2304.1356   2303.221   78.80273   12.82031   134.3750   24.98438   6.654887   6.132854   10.80729   2.629822   27.32239   .0077972   2.746231   4.823685  -1.655029   21.23828
 2304.2880   2303.374   80.32617   12.82031   136.0313   24.63281   6.403506   5.928708   11.04688   2.611633   26.47705   .0036888   2.743591   4.733896  -1.472656   21.45801
 2304.4404   2303.526   82.16992   12.82031   137.9375   24.66406   5.957987   5.697273   10.72656   2.589264   26.49126   .0010204   2.785706   4.733610  -1.221802   21.18311
