~Version Information
VERS.                     2.0: CWLS log ASCII Standard Version 2.00
WRAP.                      NO: One line per depth step
~Well Information Block
#MNEM.UNIT                 Value                       Information
#------------              -----                       -----------
STRT.M                     47.2440                    :START
STOP.M                   2609.8500                    :STOP
STEP.M                       .1524                    :STEP
NULL.                     -999.25                     :NULL VALUE
WELL.         NORTH HERALD 1                          :Well Name
FLD .         NORTH HERALD                            :Field
PROV.                                                 :Province
LOC .                                                 :Field Location
PD  .         MSL                                     :Permanent Datum
UWI .                                                 :Unique Well ID
ELZ .M               .00                              :Elevation Log Zero
OS  .                                                 :Services
SRVC.                                                 :Service company
DATE.                                                 :Date
~Curve Information
#MNEM   .UNIT             API CODE Curve Description
#------------             -------- -----------------
DEPT    .M                        :   1  Depth
DEP     .M                        :   2  Measured Depth
FDTU    .US/F                     :   3  Delta T
ACAL    .CM                       :   4  Caliper Log
SGRC    .GAPI                     :   5  Gamma-Ray Log
SP      .MV                       :   6  Spontaneous Potential Log
LLS     .OHMM                     :   7  Shallow Laterolog
SEDP    .OHMM                     :   8  Laterolog Deep Resistivity
MSFL    .OHMM                     :   9  Micro Spherically Focused Log
SBDC    .G/C3                     :  10  Compensated Formation Density Log
FSTP    .PU                       :  11  Neutron Log Porosity
DRHO    .G/C3                     :  12  Density Log Correction
PEF     .                         :  13  Photoelectric Factor
POTA    .PU                       :  14  Potassium Concentration
URAN    .PPM                      :  15  Uranium
THOR    .PPM                      :  16  Thorium
~Parameter Information
#MNEM.UNIT       Value           Description
#------------    -----           -----------
BLI .M           2608.94        :Bottom log interval
TLI .M             47.09        :Top log interval
~Other Information
~A
# ...
 1281.0744   1280.617   97.07813   12.54688   89.71875   46.35156   .5029989   .5574811   .4116211   2.186035   27.03857  -.0083008   1.846139   3.918457  -.4317627   10.30469
 1281.2268   1280.770   97.48438   12.54688   86.54688   46.25000   .4941229   .5522678   .3870443   2.182129   27.19727  -.0069580   1.795465   3.894043  -.7525635   9.293945
 1281.3792   1280.922   98.12500   12.56250   86.48438   46.29688   .4625724   .5341190   .3927408   2.176758   27.18506  -.0036621   1.740227   3.796387  -.8986816   8.130859
 1281.5316   1281.074   98.37500   12.62305   85.92188   46.25781   .4619772   .5368556   .3592122   2.171875   26.81885  -.0019531   1.714634   3.747559  -.8012695   7.227539
 1281.6840   1281.227   98.07813   12.67969   83.50000   46.04688   .4745200   .5046625   .3528646   2.169922   26.01318   .0007324   1.737710   3.747559  -.6295166   6.599609
 1281.8364   1281.379   97.71875   12.66797   80.57813   45.96094   .4910580   .5194517   .3570963   2.170898   25.54932   .0051270   1.822385   3.820801  -.8996582   6.663086
 1281.9888   1281.531   97.31250   12.67969   79.73438   45.93750   .5087614   .5498505   .3862305   2.171875   26.06201   .0057373   1.952826   3.906250  -1.361084   7.330078
 1282.1412   1281.684   96.96875   12.83789   80.40625   45.86719   .5196122   .6213313   .3722330   2.172852   26.77002   .0043945   2.075472   3.918457  -1.525391   8.028320
 1282.2936   1281.836   97.03125   13.03711   80.09375   45.75781   .5327016   .5790826   .3610026   2.180176   26.03760   .0213623   2.108835   4.003906  -1.669678   8.697266
 1282.4460   1281.989   97.28125   13.12891   79.73438   45.78906   .4958444   .5700673   .3909505   2.198730   23.91357   .0653076   2.055947   4.248047  -2.020264   9.310547
 1282.5984   1282.141   97.96875   13.15039   81.17188   46.07031   .4770042   .4838873   .3992513   2.216309   22.55859   .1027832   1.990290   4.443359  -2.153076   9.742188
 1282.7508   1282.293   99.21875   13.08789   86.37500   46.35938   .4325716   .4177434   .3888346   2.214355   23.60840   .0979004   2.005258   4.541016  -2.243652   10.70117
 1282.9032   1282.446   98.98438   12.97852   95.65625   46.50000   .3901834   .3936920   .3859049   2.202637   26.25732   .0614014   2.128600   4.650879  -2.632080   12.37695
 1283.0556   1282.598   95.73438   12.95117   105.2031   46.50000   .4410865   .4767668   .3815104   2.212402   28.07617   .0286865   2.280716   4.724121  -2.864746   14.08398
 1283.2080   1282.751   90.62500   12.89063   111.5313   46.43750   .6030309   .6426038   .4707031   2.266113   26.79443   .0187988   2.358845   4.760742  -2.975586   15.85938
 1283.3604   1282.903   85.92188   12.72852   113.6250   46.28906   .7632912   .9233129   1.502930   2.341797   23.37646   .0270996   2.288026   4.797363  -3.022461   16.99609
 1283.5128   1283.055   83.60938   12.60352   113.9375   45.96094   1.013979   1.275897   1.772135   2.379395   20.83740   .0382080   2.146874   4.760742  -2.381592   16.08203
 1283.6652   1283.208   84.45313   12.54883   112.7813   45.56250   .9554026   1.200181   .9212239   2.354492   20.71533   .0395508   2.004759   4.675293  -1.396729   14.22070
 1283.8176   1283.360   87.51563   12.56445   109.2813   45.28125   .7701644   .8559417   .6621094   2.301270   22.37549   .0295410   1.884678   4.663086  -.9619141   13.20117
 1283.9700   1283.513   90.87500   12.63086   106.2500   45.31250   .6390603   .6952728   .6113281   2.260254   24.38965   .0183105   1.880557   4.724121  -1.054199   13.06250
 1284.1224   1283.665   93.26563   12.66406   106.0313   45.61719   .6027007   .6631455   .4532877   2.232910   26.47705   .0102539   1.963466   4.760742  -1.256104   13.49023
 1284.2748   1283.817   94.40625   12.71484   108.3281   45.82031   .5723304   .6460555   .4375000   2.208496   28.10059   .0035400   1.978626   4.724121  -1.260132   13.90234
 1284.4272   1283.970   94.26563   12.87305   110.9844   45.75781   .5771251   .6411576   .5043945   2.193848   28.55225   .0009766   1.883020   4.711914  -1.270020   14.23242
 1284.5796   1284.122   93.17188   13.10352   114.4531   45.64844   .6148927   .6569256   .4741211   2.195801   28.50342   .0040283   1.781198   4.797363  -1.621704   14.87695
 1284.7320   1284.275   92.10938   13.16992   119.4531   45.62500   .6442817   .6874688   .4791666   2.207031   28.75977   .0095215   1.787189   4.858398  -1.851318   15.26367
 1284.8844   1284.427   91.50000   12.95117   123.1094   45.52344   .6741260   .7709000   .5000000   2.216797   28.97949   .0170898   1.880964   4.809570  -1.496826   14.89844
 1285.0368   1284.580   91.15625   12.75781   123.5156   45.19531   .7375035   .8424609   .6336262   2.226074   28.64990   .0297852   1.954892   4.711914  -.7683105   13.96875
 1285.1892   1284.732   91.31250   12.68750   121.2656   44.71875   .7599901   .8634207   .6502278   2.233887   28.35693   .0391846   1.971061   4.675293  -.1561279   12.95703
 1285.3416   1284.884   91.65625   12.62109   118.8125   44.46875   .7637804   .8527875   .6092122   2.230957   28.99170   .0317383   1.936146   4.724121  -.1770020   12.92188
 1285.4940   1285.037   92.00000   12.62695   118.2813   44.58594   .6773129   .7520096   .5361328   2.219238   30.12695   .0114746   1.871112   4.919434  -1.080688   14.23633
 1285.6464   1285.189   92.35938   12.64258   120.2031   44.85938   .6521853   .6198514   .4941406   2.221680   30.35889  -.0039063   1.837684   5.187988  -2.214600   16.05859
 1285.7988   1285.342   92.03125   12.63086   124.7656   45.14844   .6409128   .6502835   .4903971   2.253906   29.06494  -.0053711   1.884360   5.163574  -2.580078   17.72852
 1285.9512   1285.494   90.93750   12.71680   132.5469   45.25000   .6480281   .7155831   .4357096   2.294434   27.29492   .0019531   1.967097   4.882813  -2.217285   19.03125
 1286.1036   1285.646   90.28125   12.84375   142.4375   45.12500   .6984527   .7371228   .5258789   2.309570   26.39160   .0115967   1.995794   4.699707  -2.228027   20.80469
 1286.2560   1285.799   91.39063   12.86328   150.6563   44.96094   .7158130   .7529290   .6897786   2.291992   26.66016   .0173340   1.949040   4.663086  -2.764648   22.78516
 1286.4084   1285.951   93.43750   12.74414   153.5000   45.01563   .7574900   .7700045   .6741536   2.258789   27.70996   .0129395   1.896844   4.663086  -2.865723   23.08984
 1286.5608   1286.104   95.06250   12.57813   149.9688   45.25000   .7632844   .7803036   .5651041   2.232910   28.64990   .0025635   1.888793   4.650879  -2.275635   21.41797
 1286.7132   1286.256   96.50000   12.48242   143.6563   45.36719   .7346572   .7386191   .5764973   2.230957   28.96729  -.0051270   1.932530   4.675293  -1.229004   18.42969
 1286.8656   1286.408   97.35938   12.46094   139.1875   45.43750   .7623779   .8096117   1.018392   2.257324   28.69873  -.0042725   2.042588   4.833984  -.6855469   16.05078
 1287.0180   1286.561   97.21875   12.46094   138.3750   45.40625   .8548068   .9079735   .6578776   2.294434   28.63770   .0037842   2.164327   4.943848  -.9112549   15.52344
 1287.1704   1286.713   96.96875   12.44141   141.0000   45.11719   .8897671   .9525167   1.000814   2.319336   29.18701   .0108643   2.241447   4.870605  -.7703857   14.88477
 1287.3228   1286.865   96.96875   12.39844   142.3750   44.85156   .8131971   .8918849   .8295898   2.328613   29.24805   .0131836   2.309149   4.846191  -.4017334   13.45703
 1287.4752   1287.018   96.81250   12.37109   136.8438   44.90625   .6982917   .7387104   1.029948   2.325684   28.36914   .0123291   2.389876   4.895020  -.3769531   12.28125
 1287.6276   1287.170   96.40625   12.36719   124.6563   45.15625   .6615198   .6492668   .5655924   2.310547   27.34375   .0083008   2.432653   4.882813  -.4882813   11.32422
 1287.7800   1287.323   96.26563   12.38477   112.0469   45.27344   .5847650   .5774363   .4103190   2.294434   26.70898   .0030518   2.407149   4.858398  -.7264404   10.60742
 1287.9324   1287.475   95.82813   12.42578   106.0469   45.32813   .6141872   .6253196   .5566406   2.289063   26.00098   .0007324   2.328551   4.846191  -.8726807   10.12695
