~Version Information
VERS.                     2.0: CWLS log ASCII Standard Version 2.00
WRAP.                      NO: One line per depth step
~Well Information Block
#MNEM.UNIT                 Value                       Information
#------------              -----                       -----------
STRT.M                     47.2440                    :START
STOP.M                   2609.8500                    :STOP
STEP.M                       .1524                    :STEP
NULL.                     -999.25                     :NULL VALUE
WELL.         NORTH HERALD 1                          :Well Name
FLD .         NORTH HERALD                            :Field
PROV.                                                 :Province
LOC .                                                 :Field Location
PD  .         MSL                                     :Permanent Datum
UWI .                                                 :Unique Well ID
ELZ .M               .00                              :Elevation Log Zero
OS  .                                                 :Services
SRVC.                                                 :Service company
DATE.                                                 :Date
~Curve Information
#MNEM   .UNIT             API CODE Curve Description
#------------             -------- -----------------
DEPT    .M                        :   1  Depth
DEP     .M                        :   2  Measured Depth
FDTU    .US/F                     :   3  Delta T
ACAL    .CM                       :   4  Caliper Log
SGRC    .GAPI                     :   5  Gamma-Ray Log
SP      .MV                       :   6  Spontaneous Potential Log
LLS     .OHMM                     :   7  Shallow Laterolog
SEDP    .OHMM                     :   8  Laterolog Deep Resistivity
MSFL    .OHMM                     :   9  Micro Spherically Focused Log
SBDC    .G/C3                     :  10  Compensated Formation Density Log
FSTP    .PU                       :  11  Neutron Log Porosity
DRHO    .G/C3                     :  12  Density Log Correction
PEF     .                         :  13  Photoelectric Factor
POTA    .PU                       :  14  Potassium Concentration
URAN    .PPM                      :  15  Uranium
THOR    .PPM                      :  16  Thorium
~Parameter Information
#MNEM.UNIT       Value           Description
#------------    -----           -----------
BLI .M           2608.94        :Bottom log interval
TLI .M             47.09        :Top log interval
~Other Information
~A
# ...
 1862.9376   1862.176   72.93896   12.27344   61.88281   91.15625   .7981454   .9242642   1.034831   2.371185   15.58514  -.0034513   1.820190   3.810835  -1.832031   4.145508
 1863.0900   1862.328   71.95313   12.27344   62.70313   90.96094   .8125440   .9143006   1.005697   2.393005   15.59620  -.0037194   1.894653   3.800631  -1.584961   3.746155
 1863.2424   1862.480   69.78906   12.27344   63.04688   90.60938   .8594313   1.009032   .9054362   2.431152   14.96735  -.0035362   1.982849   3.677559  -1.401367   3.915527
 1863.3948   1862.633   67.16992   12.27344   63.45313   90.28906   .9790056   1.149199   .9632161   2.473145   13.46436  -.0033569   2.039063   3.533936  -1.299561   4.329590
 1863.5472   1862.785   65.54688   12.27344   65.17969   89.92188   1.113105   1.353416   1.051758   2.493385   11.68976  -.0032368   2.049652   3.496742  -1.436768   4.746582
 1863.6996   1862.938   66.02930   12.27344   65.89063   89.59375   1.182100   1.403232   1.034180   2.475800   10.79397  -.0030591   2.006836   3.532839  -1.729736   5.094971
 1863.8520   1863.090   68.64453   12.27344   65.23438   89.42969   1.105489   1.333406   1.267252   2.431152   11.47461  -.0024862   1.917114   3.535604  -1.889801   5.304565
 1864.0044   1863.242   72.06250   12.27344   64.15625   89.22656   .9674150   1.133492   .9565430   2.384094   13.16833  -.0015774   1.821106   3.526354  -1.904556   5.343811
 1864.1568   1863.395   74.63672   12.27344   64.40625   88.96094   .9142895   1.052114   .8139648   2.350891   14.66980  -.0012021   1.761353   3.560734  -1.900360   5.285889
 1864.3092   1863.547   75.88330   12.27148   66.53125   88.57813   .8611501   1.011436   .7882487   2.334206   15.48004  -.0016422   1.737000   3.598857  -1.853027   5.197632
 1864.4616   1863.699   76.22560   12.26953   68.20313   88.06250   .8678517   1.013151   .8357747   2.330742   15.88631  -.0024118   1.710815   3.632498  -1.863037   5.149765
 1864.6140   1863.852   76.29468   12.27148   68.78125   87.61719   .8633949   1.008429   .8307291   2.334000   16.27235  -.0036697   1.667664   3.666735  -1.973511   5.179565
 1864.7664   1864.004   76.47290   12.27344   68.89063   87.36719   .8407010   1.009363   .8359375   2.336071   16.63704  -.0059013   1.630219   3.661013  -2.027299   5.303467
 1864.9188   1864.157   76.57104   12.27344   68.42188   87.37500   .8575524   .9606177   .7532551   2.335960   16.69521  -.0075626   1.623260   3.641951  -1.973389   5.345947
 1865.0712   1864.309   76.35986   12.27344   66.60938   87.65625   .8407438   .9664173   .7421875   2.339676   16.25214  -.0057373   1.641922   3.678322  -1.799316   4.935547
 1865.2236   1864.461   75.93115   12.27344   64.42188   87.97656   .8128695   .9749441   .7841797   2.347702   15.45715  -.0009308   1.647003   3.739238  -1.659164   4.503357
 1865.3760   1864.614   75.51270   12.27344   64.62500   88.11719   .8111814   .9273162   .8221028   2.353175   14.91556   .0032291   1.619446   3.732777  -1.691223   4.687988
 1865.5284   1864.766   75.31091   12.27344   65.98438   88.04688   .7822819   .9231926   .8395182   2.352953   14.94370   .0045848   1.602325   3.691697  -1.767944   5.121582
 1865.6808   1864.919   75.24768   12.27344   65.07813   87.84375   .7899266   .9012796   .7286783   2.352894   15.16778   .0038843   1.653564   3.664351  -1.838806   5.450195
 1865.8332   1865.071   75.06836   12.27344   62.21875   87.78125   .7570975   .9014106   .7928059   2.358589   15.11307   .0027962   1.767700   3.628254  -1.931641   5.752441
 1865.9856   1865.223   74.67529   12.27344   60.52344   87.81250   .8282784   .9629563   .8346354   2.365337   14.93435   .0012054   1.862549   3.598118  -2.120361   6.126465
 1866.1380   1865.376   74.32843   12.27344   60.79688   87.82031   .8238909   1.005024   .8251953   2.365524   15.18250  -.0007553   1.864807   3.586090  -2.350891   6.483765
 1866.2904   1865.528   74.53418   12.27344   61.31250   87.91406   .8045496   .9685832   1.187174   2.356445   15.85541  -.0024891   1.791626   3.574073  -2.372192   6.543579
 1866.4428   1865.681   75.39551   12.27344   62.60938   87.95313   .7840643   .9412986   .8818359   2.340378   16.46881  -.0044613   1.714355   3.566861  -2.270752   6.425964
 1866.5952   1865.833   76.40527   12.27344   65.32031   87.85938   .7371153   .8535498   .7065430   2.325066   16.79468  -.0068016   1.685989   3.574443  -2.257454   6.377808
 1866.7476   1865.986   76.86377   12.27344   68.01563   87.82813   .6943769   .8360435   .6407877   2.318359   16.87012  -.0099487   1.700043   3.550148  -2.252258   6.468750
 1866.9000   1866.138   76.44727   12.25195   70.06250   88.00781   .7072756   .8395098   .6484375   2.322937   16.67595  -.0126953   1.718048   3.460503  -2.148682   6.682026
 1867.0524   1866.290   75.37695   12.20703   72.21875   88.07813   .7211692   .8907824   .7405598   2.338165   16.17661  -.0120926   1.732269   3.350258  -1.876953   6.630371
 1867.2048   1866.443   74.08398   12.18164   74.18750   87.60938   .8072606   .9688647   .7854817   2.361298   15.50674  -.0077095   1.767334   3.314018  -1.646057   6.312622
 1867.3572   1866.595   73.00391   12.17969   73.09375   86.85938   .8774652   1.070388   .8740234   2.383362   14.96201  -.0033398   1.819550   3.363419  -1.699951   6.219910
 1867.5096   1866.748   72.41187   12.17969   67.98438   86.32031   .8784392   1.091004   1.114909   2.391159   14.59732  -.0029411   1.837250   3.421307  -1.802826   6.187012
 1867.6620   1866.900   72.42627   12.17969   63.14063   86.04688   .8886123   1.086437   1.039713   2.380463   14.32638  -.0056610   1.809662   3.453660  -1.787720   5.999390
 1867.8144   1867.052   72.89600   12.17969   63.34375   86.02344   .8672141   1.063686   .8946940   2.363037   14.28337  -.0076456   1.790771   3.440142  -1.740570   5.926025
 1867.9668   1867.205   73.48047   12.17969   67.20313   86.25000   .8509508   1.009804   .8247070   2.351273   14.51111  -.0068741   1.803345   3.406882  -1.722168   6.008728
 1868.1192   1867.357   73.95752   12.17969   69.70313   86.59375   .8314830   1.008195   .8401692   2.345055   14.96696  -.0051196   1.826210   3.432369  -1.787964   6.069489
 1868.2716   1867.510   74.31494   12.17969   68.98438   86.89063   .8217663   1.013165   .8417969   2.339729   15.39421  -.0049019   1.835060   3.503799  -1.924721   6.104248
 1868.4240   1867.662   74.78613   12.17969   66.68750   86.96875   .8135306   1.015657   .8188477   2.332520   15.46631  -.0061035   1.825928   3.527832  -1.919434   6.027344
 1868.5764   1867.814   75.41211   12.17969   64.62500   86.97656   .8127078   1.006939   .7613932   2.326172   15.44189  -.0061035   1.814941   3.466797  -1.666504   5.780273
 1868.7288   1867.967   75.85815   12.17969   63.03125   87.27344   .8210130   .9795029   .7402344   2.323780   15.74097  -.0041904   1.801788   3.418970  -1.481201   5.620483
 1868.8812   1868.119   75.91968   12.17969   63.00000   87.91406   .8091626   .9792496   .7229817   2.321857   16.37955  -.0032139   1.780212   3.476524  -1.505157   5.441162
 1869.0336   1868.271   75.81873   12.17969   64.50000   88.57031   .7995120   .9738044   .7218424   2.320402   16.81862  -.0036321   1.761429   3.570652  -1.518951   5.095215
 1869.1860   1868.424   75.91064   12.17969   65.01563   88.93750   .7646513   .9378358   .7298176   2.321657   16.85691  -.0032139   1.754875   3.599072  -1.454102   4.927979
 1869.3384   1868.576   76.35498   12.17969   64.85938   89.06250   .7772254   .9110408   .7322590   2.323532   16.89081  -.0020771   1.752640   3.579140  -1.406128   5.021240
 1869.4908   1868.729   77.00244   12.17969   66.14063   89.20313   .7207774   .9294413   .6997070   2.320728   17.03377  -.0022745   1.727997   3.565943  -1.390869   5.118042
 1869.6432   1868.881   77.63818   12.17969   68.54688   89.31250   .7486212   .9022310   .6448567   2.311523   17.13696  -.0044136   1.678955   3.564453  -1.417023   5.196045
 1869.7956   1869.033   78.29199   12.17969   69.79688   89.24219   .7267331   .8873850   .6404622   2.301888   17.04874  -.0067024   1.636230   3.554237  -1.423265   5.211937
